[
  {
    "name": "140 on Royal",
    "type": "C",
    "units": 48.0,
    "manager": "Bethany Sizemore",
    "assistant_mgr": null,
    "compliance": "NA",
    "address": "140 Royal Drive",
    "city": "Madison",
    "state": "AL",
    "zip": "35758",
    "office_phone": "256-772-6736",
    "fax": "256-585-6772",
    "manager_email": "140onroyal@gatewaymgt.com",
    "rpm": "Shirley Greer",
    "rvp": "Paula Hall",
    "owner": "Gateway",
    "legal_entity": "Eagle Pointe Apartment, LTD.",
    "lat": 34.684059,
    "lng": -86.759483
  },
  {
    "name": "Abbington at Summit",
    "type": "55",
    "units": 52.0,
    "manager": "Pam Ford",
    "assistant_mgr": null,
    "compliance": "Tammy",
    "address": "951 Old Grants Mill Road",
    "city": "Birmingham",
    "state": "AL",
    "zip": "35210",
    "office_phone": "205-206-7111",
    "fax": "(763) 290-1918",
    "manager_email": "abbingtonsummit@gatewaymgt.com",
    "rpm": "T'arra Brown",
    "rvp": "Erin Loupe",
    "owner": "Rea Ventures",
    "legal_entity": "Irondale Abbington Summit Pointe, LP",
    "lat": 0.0,
    "lng": 0.0
  },
  {
    "name": "Abbington Reserve Apartments",
    "type": "F",
    "units": 238.0,
    "manager": "Terrell Treadwell",
    "assistant_mgr": "Lettice Kinsey",
    "compliance": "Tammy",
    "address": "3051 Lumby Drive",
    "city": "Decatur",
    "state": "GA",
    "zip": "30034",
    "office_phone": "678-608-4988",
    "fax": "(678) 608-4988",
    "manager_email": "abbingtonreserve@gatewaymgt.com",
    "rpm": "Brenda Jackson",
    "rvp": "Toni Raymond",
    "owner": "Rea Ventures",
    "legal_entity": "Dekalb Abbington Reserve, LP",
    "lat": 0.0,
    "lng": 0.0
  },
  {
    "name": "Agape - Lease up",
    "type": "F",
    "units": 222.0,
    "manager": "Aaron Lawrence",
    "assistant_mgr": "Paula Smith",
    "compliance": "Amber",
    "address": "1590 Agape Way",
    "city": "Decatur",
    "state": "GA",
    "zip": "30035",
    "office_phone": "470-571-3001",
    "fax": null,
    "manager_email": "agape@gatewaymgt.com",
    "rpm": "Arglidian McElheney",
    "rvp": "Toni Raymond",
    "owner": "LDG",
    "legal_entity": "LDG Agape Family Development LLC",
    "lat": 0.0,
    "lng": 0.0
  },
  {
    "name": "Alexander Village",
    "type": "55",
    "units": 48.0,
    "manager": "Charity Wright",
    "assistant_mgr": "Tracey Smith",
    "compliance": "Kimberly",
    "address": "200 Alexander Village",
    "city": "Florence ",
    "state": "AL",
    "zip": "35634",
    "office_phone": "256-766-0048",
    "fax": "256-768-5833",
    "manager_email": "alexandervillage@gatewaymgt.com",
    "rpm": "Shirley Greer",
    "rvp": "Paula Hall",
    "owner": "Gateway",
    "legal_entity": "Alexander Village Apartments LTD",
    "lat": 0.0,
    "lng": 0.0
  },
  {
    "name": "Americus Garden Apts.",
    "type": "F",
    "units": 44.0,
    "manager": "TBD",
    "assistant_mgr": "TBD",
    "compliance": "Becky",
    "address": "730 S. MLK Blvd.",
    "city": "Americus",
    "state": "GA",
    "zip": "31719",
    "office_phone": "229-924-7475",
    "fax": "229-213-3534",
    "manager_email": "americus@gatewaymgt.com",
    "rpm": "Chantelle Boone",
    "rvp": "Toni Raymond",
    "owner": "Gateway",
    "legal_entity": null,
    "lat": 0.0,
    "lng": 0.0
  },
  {
    "name": "Atmore Senior",
    "type": "55",
    "units": 50.0,
    "manager": "Ashley Thomas",
    "assistant_mgr": null,
    "compliance": "Tammy",
    "address": "1100 McRae Street",
    "city": "Atmore",
    "state": "AL",
    "zip": "36502",
    "office_phone": "251-973-6000",
    "fax": "(251) 416-8057",
    "manager_email": "atmoresenior@gatewaymgt.com",
    "rpm": "Kat Butts",
    "rvp": "Paula Hall",
    "owner": "Gateway",
    "legal_entity": "Atmore Senior Village, LTD",
    "lat": 31.008841,
    "lng": -87.467777
  },
  {
    "name": "Augustine, The ",
    "type": "55",
    "units": 104.0,
    "manager": "Shellie Fennel",
    "assistant_mgr": "Betty Hutto",
    "compliance": "Paulette",
    "address": "825 Booth Road",
    "city": "Warner Robins",
    "state": "GA",
    "zip": "31088",
    "office_phone": "478-366-2750",
    "fax": null,
    "manager_email": "theaugustine@gatewaymgt.com",
    "rpm": "Jonathan Marrero",
    "rvp": "Toni Raymond",
    "owner": "Gateway",
    "legal_entity": "Augustine - Warner Robins LP",
    "lat": 32.5950346,
    "lng": -83.6179657
  },
  {
    "name": "Autumn Ridge",
    "type": "F",
    "units": 48.0,
    "manager": "Michelle Laughlin",
    "assistant_mgr": null,
    "compliance": "Becky",
    "address": "300 Autumn Ridge Drive",
    "city": "Jacksonville",
    "state": "NC",
    "zip": "28546",
    "office_phone": "910 938-9800",
    "fax": "(910) 420-4548",
    "manager_email": "autumnridge@gatewaymgt.com",
    "rpm": "Melissa Valley",
    "rvp": "Melissa Valley",
    "owner": "Gateway",
    "legal_entity": "Autumn Ridge, LLC",
    "lat": 34.7874308,
    "lng": -77.3932057
  },
  {
    "name": "Bailey Springs ",
    "type": "55",
    "units": 28.0,
    "manager": "Demetria Byrd",
    "assistant_mgr": "TBD",
    "compliance": "Becky",
    "address": "939 Bailey Springs Drive",
    "city": "Lincolnton",
    "state": "NC",
    "zip": "28092",
    "office_phone": "704-736-1222 ",
    "fax": "(980) 281-2007",
    "manager_email": "baileysprings@gatewaymgt.com",
    "rpm": "Melissa Valley",
    "rvp": "Melissa Valley",
    "owner": "Gateway",
    "legal_entity": "Bailey Springs Apartments, Ltd.",
    "lat": 0.0,
    "lng": 0.0
  },
  {
    "name": "Baytown Village",
    "type": "62",
    "units": 48.0,
    "manager": "Reagan Abner",
    "assistant_mgr": null,
    "compliance": "Gail",
    "address": "4291 McCrary Road ",
    "city": "Semmes",
    "state": "AL",
    "zip": "36575",
    "office_phone": "251-338-0634",
    "fax": "(251) 973-6291",
    "manager_email": "baytown@gatewaymgt.com",
    "rpm": "Kat Butts",
    "rvp": "Paula Hall",
    "owner": "Gateway",
    "legal_entity": "Baytown Senior Village, LTD",
    "lat": 30.7826627,
    "lng": -88.259632
  },
  {
    "name": "Belle Isle Apts.",
    "type": "55",
    "units": 28.0,
    "manager": "TBD",
    "assistant_mgr": null,
    "compliance": "Tammy",
    "address": "18720 Hwy 90",
    "city": "Robertsdale",
    "state": "AL",
    "zip": "36567",
    "office_phone": "251-947-4055",
    "fax": "866-645-1882",
    "manager_email": "belleisle@gatewaymgt.com",
    "rpm": "Kat Butts",
    "rvp": "Paula Hall",
    "owner": "Gateway",
    "legal_entity": "Belle Isle Apartments LTD",
    "lat": 0.0,
    "lng": 0.0
  },
  {
    "name": "Blue Springs",
    "type": "F",
    "units": 40.0,
    "manager": "Michelle Laughlin",
    "assistant_mgr": null,
    "compliance": "Becky",
    "address": "460 McDaniel Drive",
    "city": "Jacksonville",
    "state": "NC",
    "zip": "28546",
    "office_phone": "910-346-3300",
    "fax": "(910) 673-8583",
    "manager_email": "bluesprings@gatewaymgt.com",
    "rpm": "Melissa Valley",
    "rvp": "Melissa Valley",
    "owner": "Gateway",
    "legal_entity": "Blue Springs Apartments, LP",
    "lat": 34.7857794,
    "lng": -77.3926553
  },
  {
    "name": "Bocage",
    "type": "62",
    "units": 58.0,
    "manager": "Kathryn Holder",
    "assistant_mgr": null,
    "compliance": "Amber",
    "address": "909 Brandywine Ln",
    "city": "Norman",
    "state": "OK",
    "zip": "73071",
    "office_phone": "405-310-1668",
    "fax": null,
    "manager_email": "bocage@gatewaymgt.com ",
    "rpm": "Diana Stoflet",
    "rvp": "Erin Loupe",
    "owner": "RHG",
    "legal_entity": "Bocage Apartments LP",
    "lat": 35.2056723,
    "lng": -97.411019
  },
  {
    "name": "Bradbury",
    "type": "F",
    "units": 40.0,
    "manager": "Demetria Byrd",
    "assistant_mgr": null,
    "compliance": "Bendetta",
    "address": "2901 Old Conover",
    "city": "Newton",
    "state": "NC",
    "zip": "28658",
    "office_phone": "828- 465-6221",
    "fax": "828-771-2010",
    "manager_email": "bradbury@gatewaymgt.com",
    "rpm": "Melissa Valley",
    "rvp": "Melissa Valley",
    "owner": "Gateway",
    "legal_entity": "Bradbury Apartments LP",
    "lat": 35.694391,
    "lng": -81.230008
  },
  {
    "name": "Brentwood Landing Apts.",
    "type": "F",
    "units": 80.0,
    "manager": "Chequila Mchone",
    "assistant_mgr": "Kathy Wright",
    "compliance": "Bendetta",
    "address": "597 Covered Bridge Pkwy",
    "city": "Prattville",
    "state": "AL",
    "zip": "36066",
    "office_phone": "334-491-1888",
    "fax": "334-419-1889",
    "manager_email": "brentwood@gatewaymgt.com",
    "rpm": "T'arra Brown",
    "rvp": "Erin Loupe",
    "owner": "Gateway",
    "legal_entity": "Brentwood Landing Apts.",
    "lat": 32.4789743,
    "lng": -86.4151503
  },
  {
    "name": "Brentwood Landing II Apts.",
    "type": "F",
    "units": 96.0,
    "manager": "Chequila Mchone",
    "assistant_mgr": "Kathy Wright",
    "compliance": "Bendetta",
    "address": "549 Covered Bridge Pkwy",
    "city": "Prattville",
    "state": "AL",
    "zip": "36066",
    "office_phone": "334-491-1888",
    "fax": "334-419-1889",
    "manager_email": "brentwood2@gatewaymgt.com",
    "rpm": "T'arra Brown",
    "rvp": "Erin Loupe",
    "owner": "Gateway",
    "legal_entity": "Brentwood Landing II Apts.",
    "lat": 32.4765818,
    "lng": -86.4152958
  },
  {
    "name": "Bridges at Landrum",
    "type": "F",
    "units": 200.0,
    "manager": "Tasha Taylor",
    "assistant_mgr": "Anique Tate",
    "compliance": "Bendetta",
    "address": "2944 Landrum Drive, SW",
    "city": "Atlanta",
    "state": "GA",
    "zip": "30311",
    "office_phone": "470-668-2550",
    "fax": null,
    "manager_email": "bridgesatlandrum@gatewaymgt.com",
    "rpm": "Brandi Harris",
    "rvp": "Toni Raymond",
    "owner": "LDG",
    "legal_entity": "Landrum Family Development LP",
    "lat": 0.0,
    "lng": 0.0
  },
  {
    "name": "Brook Pointe ",
    "type": "F",
    "units": 192.0,
    "manager": "Alexis Williams",
    "assistant_mgr": "Angelina Neal",
    "compliance": null,
    "address": "504 N Pierce Street",
    "city": "Lafayette",
    "state": "LA",
    "zip": "70501",
    "office_phone": "337-227-9772",
    "fax": null,
    "manager_email": "brookpointe@gatewaymgt.com",
    "rpm": "TBD",
    "rvp": "Erin Loupe",
    "owner": "LDG",
    "legal_entity": "Brooke Pointe LP",
    "lat": 30.2383407,
    "lng": -92.0198381
  },
  {
    "name": "Brookstone Village",
    "type": "55",
    "units": 46.0,
    "manager": "Effie Parker",
    "assistant_mgr": "Revonda Gardner-Bedingfield",
    "compliance": "Kimberly",
    "address": "705 Gardner Dr. SE ",
    "city": "Jacksonville",
    "state": "AL",
    "zip": "36265",
    "office_phone": "256-782-0736",
    "fax": "256-513-7520",
    "manager_email": "brookstone@gatewaymgt.com",
    "rpm": "Anna Walters",
    "rvp": "Erin Loupe",
    "owner": "Gateway",
    "legal_entity": "Brookstone Village Apartments LTD",
    "lat": 33.8075808,
    "lng": -85.7518905
  },
  {
    "name": "Candler Reserve - Lease up",
    "type": "F",
    "units": 192.0,
    "manager": "Keyounia Hervey",
    "assistant_mgr": "Rachel Edmondson",
    "compliance": "Paulette",
    "address": "2648 Candler Parkway",
    "city": "Decatur",
    "state": "GA",
    "zip": "30032",
    "office_phone": "470-579-5550",
    "fax": null,
    "manager_email": "candlerreserve@gatewaymgt.com",
    "rpm": "Arglidian McElheney",
    "rvp": "Toni Raymond",
    "owner": "LDG",
    "legal_entity": "LDG Candler Family Development LLC",
    "lat": 0.0,
    "lng": 0.0
  },
  {
    "name": "Canebreak",
    "type": "55",
    "units": 32.0,
    "manager": "Kimberly Hoefler",
    "assistant_mgr": null,
    "compliance": "Tammy",
    "address": "4901 Amy Drive",
    "city": "Wilmington",
    "state": "NC",
    "zip": "28403",
    "office_phone": "910- 392-8101 ",
    "fax": "(910) 900-4499",
    "manager_email": "canebreak@gatewaymgt.com",
    "rpm": "Melissa Valley",
    "rvp": "Melissa Valley",
    "owner": "Gateway",
    "legal_entity": "Canebreak Apartments LP",
    "lat": 34.236816,
    "lng": -77.883746
  },
  {
    "name": "Canter Chase",
    "type": "F",
    "units": 56.0,
    "manager": "Robert Kiker",
    "assistant_mgr": null,
    "compliance": "Bendetta",
    "address": "1105 Clearview Avenue",
    "city": "Lawrenceburg",
    "state": "TN",
    "zip": "38464",
    "office_phone": "931-231-8222",
    "fax": "931-201-4041",
    "manager_email": "canterchase@gatewaymgt.com",
    "rpm": "Shirley Greer",
    "rvp": "Paula Hall",
    "owner": "Gateway",
    "legal_entity": "Canter Chase Apartments, LP",
    "lat": 35.2568043,
    "lng": -87.3450802
  },
  {
    "name": "Capstone at Barton Chapel (Trinity Manor)",
    "type": "F",
    "units": 100.0,
    "manager": "Beverly Bunting",
    "assistant_mgr": "Rezeile Rodriguez",
    "compliance": "Kimberly",
    "address": "2375 Barton Chapel Rd",
    "city": "Augusta",
    "state": "GA",
    "zip": "30906",
    "office_phone": "706-798-3183",
    "fax": "706-723-8433",
    "manager_email": "bartonchapel@gatewaymgt.com",
    "rpm": "Sharon Waldo",
    "rvp": "Melissa Morefield-Valley",
    "owner": "Rob Coats Banyon Foundation",
    "legal_entity": "Capstone at Barton Chapel, LP",
    "lat": 33.4396624,
    "lng": -82.0864062
  },
  {
    "name": "Carolina Oaks",
    "type": "F",
    "units": 48.0,
    "manager": "TBD",
    "assistant_mgr": null,
    "compliance": "Paulette",
    "address": "1302 Scarlet Lane",
    "city": "Myrtle Beach",
    "state": "SC",
    "zip": "29577",
    "office_phone": "843-712-2028",
    "fax": "843-353-0200",
    "manager_email": "carolinaoaks@gatewaymgt.com",
    "rpm": "Melissa Valley",
    "rvp": "Melissa Valley",
    "owner": "RHG",
    "legal_entity": "Carolina Oaks Village, LP",
    "lat": 33.6992233,
    "lng": -78.8806512
  },
  {
    "name": "Cedar Glades",
    "type": "F",
    "units": 64.0,
    "manager": "TBD",
    "assistant_mgr": null,
    "compliance": "Gail",
    "address": "500 Cedar Glades Circle",
    "city": "Shelbyville",
    "state": "TN",
    "zip": "37160",
    "office_phone": "931-735-6560",
    "fax": "931-994-5501",
    "manager_email": "cedarglades@gatewaymgt.com",
    "rpm": "Anna Walters",
    "rvp": "Erin Loupe",
    "owner": "Gateway",
    "legal_entity": "Cedar Glades Apartments, LP",
    "lat": 0.0,
    "lng": 0.0
  },
  {
    "name": "Cedar Hollow Family ",
    "type": "F",
    "units": 29.0,
    "manager": "Pamela Minix",
    "assistant_mgr": null,
    "compliance": "Kimberly",
    "address": "20879 Red Cedar Drive",
    "city": "Harrah",
    "state": "OK",
    "zip": "73045",
    "office_phone": "405-708-6055",
    "fax": null,
    "manager_email": "cedarhollow@gatewaymgt.com ",
    "rpm": "Diana Stoflet",
    "rvp": "Erin Loupe",
    "owner": "RHG",
    "legal_entity": "CEDAR HOLLOW, LP",
    "lat": 35.4758192,
    "lng": -97.1606122
  },
  {
    "name": "Cherokee Meadows",
    "type": "62",
    "units": 48.0,
    "manager": "Colette Anderson",
    "assistant_mgr": null,
    "compliance": "Amber",
    "address": "1510 E. Reading St",
    "city": "Tulsa",
    "state": "OK",
    "zip": "74106",
    "office_phone": "918-398-0079",
    "fax": null,
    "manager_email": "cherokee@gatewaymgt.com ",
    "rpm": "Diana Stoflet",
    "rvp": "Erin Loupe",
    "owner": "RHG",
    "legal_entity": null,
    "lat": 36.1799488,
    "lng": -95.9723113
  },
  {
    "name": "Cherry Ridge Independent Living ",
    "type": "55",
    "units": 56.0,
    "manager": "Rachelle McPherson",
    "assistant_mgr": null,
    "compliance": "Bendetta",
    "address": "1100 Jeff Germany Pkwy",
    "city": "Birmingham",
    "state": "AL",
    "zip": "35214",
    "office_phone": "205-791-6789",
    "fax": "(205) 623-5591",
    "manager_email": "cherryridge@gatewaymgt.com",
    "rpm": "T'arra Brown",
    "rvp": "Erin Loupe",
    "owner": "Gateway",
    "legal_entity": "Cherry Ridge Independent Living LTD",
    "lat": 0.0,
    "lng": 0.0
  },
  {
    "name": "Cherry Ridge Village Apts",
    "type": "55",
    "units": 56.0,
    "manager": "Felicia Wiley",
    "assistant_mgr": null,
    "compliance": "Bendetta",
    "address": "1001 Cherry Avenue",
    "city": "Birmingham",
    "state": "AL",
    "zip": "35214",
    "office_phone": "205-868-3800",
    "fax": null,
    "manager_email": "cherryvillage@gatewaymgt.com",
    "rpm": "T'arra Brown",
    "rvp": "Erin Loupe",
    "owner": "Gateway",
    "legal_entity": "Cherry Ridge Village Apartments, LTD",
    "lat": 33.553053,
    "lng": -86.87094
  },
  {
    "name": "Cherry Woods ",
    "type": "55",
    "units": 52.0,
    "manager": "Felicia Wiley",
    "assistant_mgr": null,
    "compliance": "Bendetta",
    "address": "1101 Jeff Germany Pkwy",
    "city": "Birmingham",
    "state": "AL",
    "zip": "35214",
    "office_phone": "205-729-6200",
    "fax": "(205) 729-6200",
    "manager_email": "cherrywoods@gatewaymgt.com",
    "rpm": "T'arra Brown",
    "rvp": "Erin Loupe",
    "owner": "Gateway",
    "legal_entity": "Cherry Woods Apartments LTD",
    "lat": 0.0,
    "lng": 0.0
  },
  {
    "name": "Clement Belle Farm - Lease up",
    "type": "F",
    "units": 64.0,
    "manager": "Stacey Torrance",
    "assistant_mgr": null,
    "compliance": "Paulette",
    "address": "1000 Belle Farm Loop",
    "city": "Brunswick",
    "state": "GA",
    "zip": "31523",
    "office_phone": "912-574-3600",
    "fax": null,
    "manager_email": "clementbellefarm@gatewaymgt.com",
    "rpm": "Ciera Armstead | Tere Dykes",
    "rvp": "Paula Hall",
    "owner": "Mitchell Davenport",
    "legal_entity": "Clement Belle Farm LP",
    "lat": 0.0,
    "lng": 0.0
  },
  {
    "name": "Cobblestone Village",
    "type": "55",
    "units": 56.0,
    "manager": "Nickita Roberts",
    "assistant_mgr": null,
    "compliance": "Gail",
    "address": "35 Cobblestone Drive",
    "city": "Clanton",
    "state": "AL",
    "zip": "35045",
    "office_phone": "205-810-1588",
    "fax": "205-286-6685",
    "manager_email": "cobblestone@gatewaymgt.com",
    "rpm": "Trisha Chauvin",
    "rvp": "Erin Loupe",
    "owner": "Gateway",
    "legal_entity": "Cobblestone Village Apartments, LTD",
    "lat": 32.8139526,
    "lng": -86.6061929
  },
  {
    "name": "College Square ",
    "type": "F",
    "units": 61.0,
    "manager": "Jennifer Glover",
    "assistant_mgr": null,
    "compliance": "Kimberly",
    "address": "1207 Edwards Street",
    "city": "Fort Valley",
    "state": "GA",
    "zip": "31030",
    "office_phone": "478-825-2140",
    "fax": "478-825-9987",
    "manager_email": "college@gatewaymgt.com",
    "rpm": "Chantelle Boone",
    "rvp": "Toni Raymond",
    "owner": "Macon Housing",
    "legal_entity": "College Square Partners, LP",
    "lat": 0.0,
    "lng": 0.0
  },
  {
    "name": "Colony West ",
    "type": "F",
    "units": 76.0,
    "manager": "Sade Davis",
    "assistant_mgr": null,
    "compliance": "Kimberly",
    "address": "5284 Bloomfield Road",
    "city": "Macon",
    "state": "GA",
    "zip": "31206",
    "office_phone": "478-788-3136",
    "fax": "478-788-5216",
    "manager_email": "colony@gatewaymgt.com",
    "rpm": "Chantelle Boone",
    "rvp": "Toni Raymond",
    "owner": "Macon Housing",
    "legal_entity": "Colony West Partners, LP",
    "lat": 32.7959137,
    "lng": -83.7074161
  },
  {
    "name": "Coosa Village Apts",
    "type": "55",
    "units": 56.0,
    "manager": "TBD",
    "assistant_mgr": null,
    "compliance": "Tammy",
    "address": "58 Elizabeth Lane",
    "city": "Sylacauga",
    "state": "AL",
    "zip": "35150",
    "office_phone": "256-369-2500",
    "fax": "256-585-6019",
    "manager_email": "coosavillage@gatewaymgt.com",
    "rpm": "Trisha Chauvin",
    "rvp": "Erin Loupe",
    "owner": "Gateway",
    "legal_entity": "Coosa Village Apartments, LTD",
    "lat": 0.0,
    "lng": 0.0
  },
  {
    "name": "Cottage MWC I  ",
    "type": "62",
    "units": 38.0,
    "manager": "Christy Sandoval",
    "assistant_mgr": null,
    "compliance": "Tammy",
    "address": "1401 Stonecrop Drive",
    "city": "Midwest City",
    "state": "OK",
    "zip": "73110",
    "office_phone": "405-708-6054",
    "fax": null,
    "manager_email": "cottagemwc@gatewaymgt.com ",
    "rpm": "Diana Stoflet",
    "rvp": "Erin Loupe",
    "owner": "RHG",
    "legal_entity": "Cottage Park LP1",
    "lat": 35.482404,
    "lng": -97.380833
  },
  {
    "name": "Cottage MWC II  ",
    "type": "62",
    "units": 42.0,
    "manager": "Christy Sandoval",
    "assistant_mgr": null,
    "compliance": "Tammy",
    "address": "1401 Stonecrop Drive",
    "city": "Midwest City",
    "state": "OK",
    "zip": "73110",
    "office_phone": "405-708-6054",
    "fax": null,
    "manager_email": "cottagemwc@gatewaymgt.com ",
    "rpm": "Diana Stoflet",
    "rvp": "Erin Loupe",
    "owner": "RHG",
    "legal_entity": "Cottage Park, LP2",
    "lat": 35.482404,
    "lng": -97.380833
  },
  {
    "name": "Cottage Park Guthrie ",
    "type": "RD-62",
    "units": 34.0,
    "manager": "Raven Carreira",
    "assistant_mgr": null,
    "compliance": "Amber",
    "address": "700 Cottage Park Circle",
    "city": "Guthrie",
    "state": "OK",
    "zip": "73044",
    "office_phone": "405-293-9220",
    "fax": null,
    "manager_email": "cottageparkguthrie@gatewaymgt.com ",
    "rpm": "Diana Stoflet",
    "rvp": "Erin Loupe",
    "owner": "RHG",
    "legal_entity": "Cottage Park LP3",
    "lat": 0.0,
    "lng": 0.0
  },
  {
    "name": "Cottage Park McAlester",
    "type": "62",
    "units": 40.0,
    "manager": "Colette Anderson",
    "assistant_mgr": null,
    "compliance": "Kimberly",
    "address": "921 Cottage Park Circle",
    "city": "McAlester",
    "state": "OK",
    "zip": "74501",
    "office_phone": "918-302-9955",
    "fax": null,
    "manager_email": "cottagemcalester@gatewaymgt.com ",
    "rpm": "Diana Stoflet",
    "rvp": "Erin Loupe",
    "owner": "RHG",
    "legal_entity": "Cottage Park McAlester LP",
    "lat": 34.9357758,
    "lng": -95.7853205
  },
  {
    "name": "Cottage Park Newcastle",
    "type": "62",
    "units": 40.0,
    "manager": "Kathryn Holder",
    "assistant_mgr": null,
    "compliance": "Amber",
    "address": "567 N. Walker Dr",
    "city": "Newcastle",
    "state": "OK",
    "zip": "73065",
    "office_phone": "405-708-6053",
    "fax": null,
    "manager_email": "cottagenewcastle@gatewaymgt.com ",
    "rpm": "Diana Stoflet",
    "rvp": "Erin Loupe",
    "owner": "RHG",
    "legal_entity": "Cottage Park Newcastle, LP",
    "lat": 35.2506913,
    "lng": -97.5912982
  },
  {
    "name": "Cottage Park Shawnee  ",
    "type": "62",
    "units": 32.0,
    "manager": "Pamela Minix",
    "assistant_mgr": null,
    "compliance": "Amber",
    "address": "1625 Grace Court",
    "city": "Shawnee",
    "state": "OK",
    "zip": "74804",
    "office_phone": "405-896-3158",
    "fax": null,
    "manager_email": "cottageshawnee@gatewaymgt.com ",
    "rpm": "Diana Stoflet",
    "rvp": "Erin Loupe",
    "owner": "RHG",
    "legal_entity": "Cottage Park Shawnee",
    "lat": 0.0,
    "lng": 0.0
  },
  {
    "name": "Covington Mill Village",
    "type": "55",
    "units": 122.0,
    "manager": "Dwahaun Ryans",
    "assistant_mgr": "Leyah Britt",
    "compliance": "Bendetta",
    "address": "11101 Covington Bypass Road",
    "city": "Covington",
    "state": "GA",
    "zip": "30014",
    "office_phone": "470-374-9300",
    "fax": "(470) 374-9300",
    "manager_email": "covingtonmillvillage@gatewaymgt.com",
    "rpm": "Brandi Harris",
    "rvp": "Toni Raymond",
    "owner": "Gateway",
    "legal_entity": "Harmony at Covington LP",
    "lat": 33.5689964,
    "lng": -83.8514249
  },
  {
    "name": "Creekview",
    "type": "55",
    "units": 56.0,
    "manager": "Charity Wright",
    "assistant_mgr": "Tracey Smith",
    "compliance": "Tammy",
    "address": "104 Creekview Village Pl.",
    "city": "Florence ",
    "state": "AL",
    "zip": "35633",
    "office_phone": "256-712-2726",
    "fax": "(256) 712-2612",
    "manager_email": "creekview@gatewaymgt.com",
    "rpm": "Shirley Greer",
    "rvp": "Paula Hall",
    "owner": "Gateway",
    "legal_entity": "Creekview Village, LTD",
    "lat": 0.0,
    "lng": 0.0
  },
  {
    "name": "Cross Creek Landing  ",
    "type": "62",
    "units": 44.0,
    "manager": "Raven Carreira",
    "assistant_mgr": null,
    "compliance": "Tammy",
    "address": "1919 NW 142nd St",
    "city": "Oklahoma City",
    "state": "OK",
    "zip": "73134",
    "office_phone": "405-896-3159",
    "fax": null,
    "manager_email": "crosscreek@gatewaymgt.com ",
    "rpm": "Diana Stoflet",
    "rvp": "Erin Loupe",
    "owner": "RHG",
    "legal_entity": "Cross Creek Landing, LP",
    "lat": 35.6154971,
    "lng": -97.5474922
  },
  {
    "name": "Crossings at Conyers, The",
    "type": "55",
    "units": 122.0,
    "manager": "Schevette Glinton",
    "assistant_mgr": "Leyah Britt",
    "compliance": "Paulette ",
    "address": "2001 W Iris Drive SE",
    "city": "Conyers",
    "state": "GA",
    "zip": "30013",
    "office_phone": "470-822-0200",
    "fax": "(470) 822-0200",
    "manager_email": "crossingsatconyers@gatewaymgt.com",
    "rpm": "Brandi Harris",
    "rvp": "Toni Raymond",
    "owner": "Gateway",
    "legal_entity": "Harmony at Conyers, LP",
    "lat": 0.0,
    "lng": 0.0
  },
  {
    "name": "Crosswinds ",
    "type": "F",
    "units": 72.0,
    "manager": "Shellie Fennel",
    "assistant_mgr": "Betty Hutto",
    "compliance": "Amber",
    "address": "801 Booth Road",
    "city": "Warner Robins",
    "state": "GA",
    "zip": "31088",
    "office_phone": "478-366-2660",
    "fax": null,
    "manager_email": "crosswinds@gatewaymgt.com",
    "rpm": "Jonathan Marrero",
    "rvp": "Toni Raymond",
    "owner": "Gateway",
    "legal_entity": "Crosswinds - Warner Robins LP",
    "lat": 32.5950346,
    "lng": -83.6179657
  },
  {
    "name": "Cypress Trace",
    "type": "55",
    "units": 40.0,
    "manager": "Marilyn Smith",
    "assistant_mgr": null,
    "compliance": "Bendetta",
    "address": "904 Clark Avenue",
    "city": "Bay Minette",
    "state": "AL",
    "zip": "36507",
    "office_phone": "251-580-0005",
    "fax": "(251) 265-2812",
    "manager_email": "cypresstrace@gatewaymgt.com",
    "rpm": "Kat Butts",
    "rvp": "Paula Hall",
    "owner": "Gateway",
    "legal_entity": "Cypress Trace Apartments, LTD",
    "lat": 30.8876107,
    "lng": -87.7865738
  },
  {
    "name": "Dogwood Trail",
    "type": "F",
    "units": 64.0,
    "manager": "Monquie Williams",
    "assistant_mgr": null,
    "compliance": "Paulette",
    "address": "108 Marie Road",
    "city": "Albany ",
    "state": "GA",
    "zip": "31705",
    "office_phone": "229-715-7199",
    "fax": "229-715-7199",
    "manager_email": "dogwoodtrail@gatewaymgt.com",
    "rpm": "Ciera Armstead | Tere Dykes",
    "rvp": "Paula Hall",
    "owner": "Mitchell Davenport",
    "legal_entity": "Dogwood Trail Apartments, LP",
    "lat": 31.5761118,
    "lng": -84.1076739
  },
  {
    "name": "Double Creek Apts",
    "type": "55",
    "units": 48.0,
    "manager": "Charity Wright",
    "assistant_mgr": "Tracey Smith",
    "compliance": "Bendetta",
    "address": "4704 Chisholm Road",
    "city": "Florence ",
    "state": "AL",
    "zip": "35630",
    "office_phone": "256-718-1427",
    "fax": "256-513-7499",
    "manager_email": "doublecreek@gatewaymgt.com",
    "rpm": "Shirley Greer",
    "rvp": "Paula Hall",
    "owner": "Gateway",
    "legal_entity": null,
    "lat": 34.8819431,
    "lng": -87.6718456
  },
  {
    "name": "Drakes Landing ",
    "type": "F",
    "units": 216.0,
    "manager": "Indira Morcol",
    "assistant_mgr": "Destinie Coston",
    "compliance": null,
    "address": "801 N. Ardenwood Drive",
    "city": "Baton Rouge",
    "state": "LA",
    "zip": "70806",
    "office_phone": "225-240-4493",
    "fax": null,
    "manager_email": "drakeslanding@gatewaymgt.com",
    "rpm": "Tina Ard",
    "rvp": "Erin Loupe",
    "owner": "LDG",
    "legal_entity": "Drakes Landing Apartments LP",
    "lat": 30.456913,
    "lng": -91.127665
  },
  {
    "name": "Dugan Square",
    "type": "55",
    "units": 42.0,
    "manager": "Pam Ford",
    "assistant_mgr": null,
    "compliance": "Amber",
    "address": "400 Dugan Court",
    "city": "Pratt City",
    "state": "AL",
    "zip": "35214",
    "office_phone": "205-868-3668",
    "fax": "205-208-9493",
    "manager_email": "dugan@gatewaymgt.com",
    "rpm": "T'arra Brown",
    "rvp": "Erin Loupe",
    "owner": "Gateway",
    "legal_entity": "Dugan Avenue Senior Village LTD",
    "lat": 0.0,
    "lng": 0.0
  },
  {
    "name": "Eagles Landing Apts",
    "type": "F",
    "units": 64.0,
    "manager": "Bethany Sizemore",
    "assistant_mgr": "Antoinette Coleman",
    "compliance": "Paulette",
    "address": "162 Royal Drive",
    "city": "Madison",
    "state": "AL",
    "zip": "35758",
    "office_phone": "256-325-1907",
    "fax": "256-513-7505",
    "manager_email": "eagleslanding@gatewaymgt.com",
    "rpm": "Shirley Greer",
    "rvp": "Paula Hall",
    "owner": "Gateway",
    "legal_entity": "Eagle's Landing Development, LTD",
    "lat": 34.6838269,
    "lng": -86.7600384
  },
  {
    "name": "East Oaks Apts.",
    "type": "F",
    "units": 40.0,
    "manager": "TBD",
    "assistant_mgr": "TBD",
    "compliance": "Tammy",
    "address": "252 Lonnie Lane",
    "city": "Americus",
    "state": "GA",
    "zip": "31709",
    "office_phone": "229-928-5072",
    "fax": "229-207-0872",
    "manager_email": "eastoaks@gatewaymgt.com",
    "rpm": "Chantelle Boone",
    "rvp": "Toni Raymond",
    "owner": "Gateway",
    "legal_entity": null,
    "lat": 32.065971,
    "lng": -84.2084697
  },
  {
    "name": "Eastside Family",
    "type": "F",
    "units": 28.0,
    "manager": "TBD",
    "assistant_mgr": null,
    "compliance": "Amber",
    "address": "1002 Northridge Ln",
    "city": "Enid",
    "state": "OK",
    "zip": "73701",
    "office_phone": "580-377-1497",
    "fax": null,
    "manager_email": "eastsidefamily@gatewaymgt.com ",
    "rpm": "Diana Stoflet",
    "rvp": "Erin Loupe",
    "owner": "RHG",
    "legal_entity": null,
    "lat": 36.3841084,
    "lng": -97.8419573
  },
  {
    "name": "Forest Mill Apts",
    "type": "F",
    "units": 80.0,
    "manager": "TBD",
    "assistant_mgr": "Mekita Allen",
    "compliance": "Kimberly",
    "address": "1406 Forest Mill Lane",
    "city": "West Point",
    "state": "GA",
    "zip": "31833",
    "office_phone": "706-862-1120",
    "fax": "706-775-8420",
    "manager_email": "forestmill@gatewaymgt.com",
    "rpm": "Jonathan Marrero",
    "rvp": "Toni Raymond",
    "owner": "Gateway",
    "legal_entity": "Forest Mill Apartments, LP",
    "lat": 0.0,
    "lng": 0.0
  },
  {
    "name": "Forest Ridge Heights",
    "type": "F",
    "units": 37.0,
    "manager": "Elizabeth Stehno",
    "assistant_mgr": null,
    "compliance": "Gail",
    "address": "1002 Northridge Ln",
    "city": "Enid",
    "state": "OK",
    "zip": "73701",
    "office_phone": "580-377-1497",
    "fax": null,
    "manager_email": "forestheights@gatewaymgt.com ",
    "rpm": "Diana Stoflet",
    "rvp": "Erin Loupe",
    "owner": "RHG",
    "legal_entity": null,
    "lat": 36.3841084,
    "lng": -97.8419573
  },
  {
    "name": "French Farms",
    "type": "55",
    "units": 56.0,
    "manager": "Porshis Brooks",
    "assistant_mgr": null,
    "compliance": "Amber",
    "address": "20766 Victoria Way",
    "city": "Athens",
    "state": "AL",
    "zip": "35611",
    "office_phone": "256-867-4356",
    "fax": "256-567-3475",
    "manager_email": "frenchfarms@gatewaymgt.com",
    "rpm": "Shirley Greer",
    "rvp": "Paula Hall",
    "owner": "Gateway",
    "legal_entity": "French Farms Village Apartments, LTD",
    "lat": 34.7836976,
    "lng": -86.9600353
  },
  {
    "name": "Garden Lakes",
    "type": "F",
    "units": 288.0,
    "manager": "Jakita Moore",
    "assistant_mgr": "Charmaine Weston",
    "compliance": "Kimberly",
    "address": "1307 Mason Road",
    "city": "Columbia",
    "state": "SC",
    "zip": "29203",
    "office_phone": "803-999-5801",
    "fax": null,
    "manager_email": "gardenlakes@gatewaymgt.com",
    "rpm": "Natashia Thompson",
    "rvp": "Melissa Valley",
    "owner": "GDA Development Partners",
    "legal_entity": "Garden Lakes, LP",
    "lat": 34.0653592,
    "lng": -81.0142636
  },
  {
    "name": "Garden Oaks - Lease up",
    "type": "F",
    "units": 288.0,
    "manager": "Ornela Marion",
    "assistant_mgr": "Latice Jackson",
    "compliance": "Gail",
    "address": "2000 Salem Road ",
    "city": "Beaufort",
    "state": "SC",
    "zip": "29902",
    "office_phone": "843-605-9444",
    "fax": null,
    "manager_email": "gardenoaks@gatewaymgt.com",
    "rpm": "Natashia Thompson",
    "rvp": "Melissa Valley",
    "owner": "GDA Development Partners",
    "legal_entity": "Garden Oaks, LP",
    "lat": 32.4262913,
    "lng": -80.7097533
  },
  {
    "name": "Gateway at Rossville ",
    "type": "F",
    "units": 156.0,
    "manager": "Sherry Wilson",
    "assistant_mgr": "Nicole Bennett",
    "compliance": "Amber",
    "address": "2563 Happy Valley Road",
    "city": "Rossville",
    "state": "GA",
    "zip": "30741",
    "office_phone": "762-325-3550",
    "fax": null,
    "manager_email": "rossville@gatewaymgt.com",
    "rpm": "Anna Walters",
    "rvp": "Erin Loupe",
    "owner": "Gateway",
    "legal_entity": "Gateway at Rossville, LP",
    "lat": 0.0,
    "lng": 0.0
  },
  {
    "name": "Gateway at the Green",
    "type": "F",
    "units": 72.0,
    "manager": "Anisha Anderson",
    "assistant_mgr": null,
    "compliance": "Bendetta",
    "address": "39 Webb Road",
    "city": "Greenville",
    "state": "SC",
    "zip": "29601",
    "office_phone": "864-867-1901",
    "fax": null,
    "manager_email": "gatewayatthegreen@gatewaymgt.com",
    "rpm": "Sharon Waldo",
    "rvp": "Melissa Valley",
    "owner": "Gateway",
    "legal_entity": "Gateway at the Green LP",
    "lat": 34.8422927,
    "lng": -82.3268908
  },
  {
    "name": "Glencoe Trace Apts. ",
    "type": "62",
    "units": 72.0,
    "manager": "Jody Head",
    "assistant_mgr": null,
    "compliance": "Gail",
    "address": "1624 Hallmark Drive",
    "city": "Griffin",
    "state": "GA",
    "zip": "30223",
    "office_phone": "770-228-9115",
    "fax": "678-967-3422",
    "manager_email": "glencoe@gatewaymgt.com",
    "rpm": "Brenda Jackson",
    "rvp": "Toni Raymond",
    "owner": "Gateway",
    "legal_entity": "Glencoe Trace, LP",
    "lat": 0.0,
    "lng": 0.0
  },
  {
    "name": "Griffin Village",
    "type": "F",
    "units": 150.0,
    "manager": "Jody Head",
    "assistant_mgr": "LaTica Broughton",
    "compliance": "Becky",
    "address": "2101 Williamson Road",
    "city": "Griffin",
    "state": "GA",
    "zip": "30224",
    "office_phone": "678-408-8050",
    "fax": null,
    "manager_email": "griffinvillage@gatewaymgt.com",
    "rpm": "Brenda Jackson",
    "rvp": "Toni Raymond",
    "owner": "Collaborative Housing",
    "legal_entity": "Griffin Village LP",
    "lat": 33.2211807,
    "lng": -84.3097478
  },
  {
    "name": "Hamilton Place Apts",
    "type": "55",
    "units": 56.0,
    "manager": "Susan Moncrief",
    "assistant_mgr": null,
    "compliance": "Paulette",
    "address": "111 Todd Trail",
    "city": "Millbrook",
    "state": "AL",
    "zip": "36054",
    "office_phone": "334-290-7744",
    "fax": "334-513-8689",
    "manager_email": "hamilton@gatewaymgt.com",
    "rpm": "Kat Butts",
    "rvp": "Paula Hall",
    "owner": "Gateway",
    "legal_entity": "Hamilton Place Apartments, LTD",
    "lat": 0.0,
    "lng": 0.0
  },
  {
    "name": "Heatherwood Apts",
    "type": "F",
    "units": 36.0,
    "manager": "TBD",
    "assistant_mgr": null,
    "compliance": "Kimberly",
    "address": "1621 Heatherwood Dr.",
    "city": "Alexander City",
    "state": "AL",
    "zip": "35010",
    "office_phone": "256-329-9581",
    "fax": "256-329-9581",
    "manager_email": "heatherwood@gatewaymgt.com",
    "rpm": "Trisha Chauvin",
    "rvp": "Erin Loupe",
    "owner": "Gateway",
    "legal_entity": "Heatherwood-DASH, LTD",
    "lat": 32.9189831,
    "lng": -85.9345386
  },
  {
    "name": "Heritage Townhomes ",
    "type": "F",
    "units": 240.0,
    "manager": "Brandon Alexander",
    "assistant_mgr": "Tamika Bunnell",
    "compliance": "Amber",
    "address": "6554 Chupp Road",
    "city": "Stonecrest",
    "state": "GA",
    "zip": "30058",
    "office_phone": "770-756-8699",
    "fax": "770-756-8699",
    "manager_email": "heritagetownhomes@gatewaymgt.com",
    "rpm": "Brenda Jackson",
    "rvp": "Toni Raymond",
    "owner": "LDG",
    "legal_entity": "Heritage Family Development LP",
    "lat": 33.7052884,
    "lng": -84.1242825
  },
  {
    "name": "Heritage Vista Apts.",
    "type": "F",
    "units": 64.0,
    "manager": "Sabrina Holsey",
    "assistant_mgr": null,
    "compliance": "Amber",
    "address": "3029 Heritage Place",
    "city": "Milledgeville",
    "state": "GA",
    "zip": "31061",
    "office_phone": "478-295-2565",
    "fax": "478-997-8966",
    "manager_email": "heritage@gatewaymgt.com",
    "rpm": "Brandi Harris",
    "rvp": "Toni Raymond",
    "owner": "Gateway",
    "legal_entity": "Heritage Vista Apartments, LP",
    "lat": 33.1180025,
    "lng": -83.2599109
  },
  {
    "name": "Heron Lake Apts.",
    "type": "F",
    "units": 88.0,
    "manager": "Amanda Cooper",
    "assistant_mgr": "TBD",
    "compliance": "Tammy",
    "address": "1800 Eastwind Road",
    "city": "Valdosta",
    "state": "GA",
    "zip": "31602",
    "office_phone": "229 257-0844",
    "fax": "229-375-5911",
    "manager_email": "heronlake@gatewaymgt.com",
    "rpm": "Tere Dykes",
    "rvp": "Paula Hall",
    "owner": "Gateway",
    "legal_entity": "Heron Lake Apartments, L.P.",
    "lat": 30.877554,
    "lng": -83.261646
  },
  {
    "name": "Heron Lake II Apts.",
    "type": "F",
    "units": 64.0,
    "manager": "Amanda Cooper",
    "assistant_mgr": "TBD",
    "compliance": "Tammy",
    "address": "Eastwind Road",
    "city": "Valdosta",
    "state": "GA",
    "zip": "31602",
    "office_phone": "229-257-0844",
    "fax": "229-375-5911",
    "manager_email": "heronlake@gatewaymgt.com",
    "rpm": "Tere Dykes",
    "rvp": "Paula Hall",
    "owner": "Gateway",
    "legal_entity": "Heron Lake II Apartments, L.P.",
    "lat": 30.8776608,
    "lng": -83.2629076
  },
  {
    "name": "Hickory Run I Apts.",
    "type": "F",
    "units": 42.0,
    "manager": "Effie Parker",
    "assistant_mgr": "Revonda Gardner-Bedingfield",
    "compliance": "Paulette",
    "address": "720 Lynn Drive SE",
    "city": "Jacksonville",
    "state": "AL",
    "zip": "36265",
    "office_phone": "256-782-0736",
    "fax": "256-782-0736",
    "manager_email": "hickory@gatewaymgt.com",
    "rpm": "Anna Walters",
    "rvp": "Erin Loupe",
    "owner": "Gateway",
    "legal_entity": null,
    "lat": 33.8085529,
    "lng": -85.7535919
  },
  {
    "name": "Hickory Run II Apts.",
    "type": "F",
    "units": 40.0,
    "manager": "Effie Parker",
    "assistant_mgr": "Revonda Gardner-Bedingfield",
    "compliance": "Paulette",
    "address": "710 Lynn Drive SE",
    "city": "Jacksonville",
    "state": "AL",
    "zip": "36265",
    "office_phone": "256-782-0736",
    "fax": "256-782-0736",
    "manager_email": "hickory@gatewaymgt.com",
    "rpm": "Anna Walters",
    "rvp": "Erin Loupe",
    "owner": "Gateway",
    "legal_entity": null,
    "lat": 33.808829,
    "lng": -85.753587
  },
  {
    "name": "High Point Senior",
    "type": "F",
    "units": 56.0,
    "manager": "Stephanie Burton",
    "assistant_mgr": "TBD",
    "compliance": "Gail",
    "address": "22572 Christi Smith Rd.",
    "city": "Andalusia",
    "state": "AL",
    "zip": "36421",
    "office_phone": "334-817-7952",
    "fax": null,
    "manager_email": "highpointsenior@gatewaymgt.com",
    "rpm": "Trisha Chauvin",
    "rvp": "Erin Loupe",
    "owner": "Gateway",
    "legal_entity": "High Point Senior Apartments Ltd",
    "lat": 0.0,
    "lng": 0.0
  },
  {
    "name": "Highland Estates of Rome",
    "type": "55",
    "units": 84.0,
    "manager": "Nadia Roper",
    "assistant_mgr": null,
    "compliance": "Paulette",
    "address": "179 Woodrow Wilson Way",
    "city": "Rome",
    "state": "GA",
    "zip": "30165",
    "office_phone": "706-378-2255",
    "fax": "706-622-4919",
    "manager_email": "highlandestates@gatewaymgt.com",
    "rpm": "Anna Walters",
    "rvp": "Erin Loupe",
    "owner": "Gateway",
    "legal_entity": "Highland Estates of Rome, LP",
    "lat": 34.2810285,
    "lng": -85.1976744
  },
  {
    "name": "Highland Park Family",
    "type": "F",
    "units": 34.0,
    "manager": "Colette Anderson",
    "assistant_mgr": null,
    "compliance": "Tammy",
    "address": "531 Airline Drive",
    "city": "Ponca City",
    "state": "OK",
    "zip": "74601",
    "office_phone": "580-352-3588",
    "fax": null,
    "manager_email": "highlandparkfamily@gatewaymgt.com ",
    "rpm": "Diana Stoflet",
    "rvp": "Erin Loupe",
    "owner": "RHG",
    "legal_entity": null,
    "lat": 36.7085017,
    "lng": -97.1060105
  },
  {
    "name": "Highland Park Senior Village",
    "type": "62",
    "units": 50.0,
    "manager": "Jennifer Doyle",
    "assistant_mgr": null,
    "compliance": "Bendetta",
    "address": "6785 Selman Drive",
    "city": "Douglasville",
    "state": "GA",
    "zip": "30134",
    "office_phone": "770-947-1838",
    "fax": "770-212-2267",
    "manager_email": "highland@gatewaymgt.com",
    "rpm": "Trisha Chauvin",
    "rvp": "Erin Loupe",
    "owner": "Gateway",
    "legal_entity": "Highland Park Senior Village, LP",
    "lat": 33.7425695,
    "lng": -84.7508605
  },
  {
    "name": "Hill at Sand Mountain, The - Lease-up",
    "type": "F",
    "units": 56.0,
    "manager": "Tracy Moualhi",
    "assistant_mgr": "Diana Street",
    "compliance": "Bendetta",
    "address": "114 Laverne Drive",
    "city": "Rainesville",
    "state": "AL",
    "zip": "35986",
    "office_phone": "256-273-8001",
    "fax": null,
    "manager_email": "hillatsandmountain@gatewaymgt.com",
    "rpm": "Anna Walters",
    "rvp": "Erin Loupe",
    "owner": "Gateway",
    "legal_entity": "Hill at Sand Mountain LTD",
    "lat": 0.0,
    "lng": 0.0
  },
  {
    "name": "Horizon Ridge",
    "type": "F",
    "units": 240.0,
    "manager": "Linda Shepard",
    "assistant_mgr": "Karen Harris",
    "compliance": "Amber",
    "address": "1010 Horizon Ridge Drive",
    "city": "Hephzibah",
    "state": "GA",
    "zip": "30815",
    "office_phone": "706- 842-3939",
    "fax": "(706) 842-3939",
    "manager_email": "horizonridge@gatewaymgt.com",
    "rpm": "Sharon Waldo",
    "rvp": "Melissa Valley",
    "owner": "LDG",
    "legal_entity": "Horizon Ridge Family Development, LP",
    "lat": 0.0,
    "lng": 0.0
  },
  {
    "name": "Howell Senior School Apts ",
    "type": "55",
    "units": 55.0,
    "manager": "Ciera Armstead",
    "assistant_mgr": null,
    "compliance": "Kimberly",
    "address": "408 E Newton Street",
    "city": "Dothan",
    "state": "AL",
    "zip": "36303",
    "office_phone": "334-305-1229",
    "fax": "334-828-7171",
    "manager_email": "howellseniorschool@gatewaymgt.com",
    "rpm": "Ciera Armstead | Tere Dykes",
    "rvp": "Paula Hall",
    "owner": "Rob Coats Banyon Foundation",
    "legal_entity": "Peaks at Dothan, LP",
    "lat": 31.2289026,
    "lng": -85.3889841
  },
  {
    "name": "Ivy Pointe Apts",
    "type": "F",
    "units": 56.0,
    "manager": "Kimberly Fulpher",
    "assistant_mgr": null,
    "compliance": "Tammy",
    "address": "400 John Aldridge Dr.",
    "city": "Tuscumbia",
    "state": "AL",
    "zip": "35674",
    "office_phone": "256-314-0155",
    "fax": "256-275-0006",
    "manager_email": "ivy@gatewaymgt.com",
    "rpm": "Shirley Greer",
    "rvp": "Paula Hall",
    "owner": "Gateway",
    "legal_entity": null,
    "lat": 0.0,
    "lng": 0.0
  },
  {
    "name": "Ivy Pointe II Apts.",
    "type": "F",
    "units": 48.0,
    "manager": "Kimberly Fulpher",
    "assistant_mgr": null,
    "compliance": "Tammy",
    "address": "400 John Aldridge Dr.",
    "city": "Tuscumbia",
    "state": "AL",
    "zip": "35674",
    "office_phone": "256-314-0155",
    "fax": "256-275-0006",
    "manager_email": "ivy2@gatewaymgt.com",
    "rpm": "Shirley Greer",
    "rvp": "Paula Hall",
    "owner": "Gateway",
    "legal_entity": null,
    "lat": 0.0,
    "lng": 0.0
  },
  {
    "name": "Jasmine Trails ",
    "type": "F",
    "units": 72.0,
    "manager": "Mandy Potter",
    "assistant_mgr": null,
    "compliance": "Gail",
    "address": "19451 Oak Rd West",
    "city": "Gulf Shores",
    "state": "AL ",
    "zip": "36542",
    "office_phone": "251-929-9010",
    "fax": "251-202-0156",
    "manager_email": "jasminetrails@gatewaymgt.com",
    "rpm": "Kat Butts",
    "rvp": "Paula Hall",
    "owner": "Gateway",
    "legal_entity": "Jasmine Trails Apartments, LTD",
    "lat": 30.311798,
    "lng": -87.6947253
  },
  {
    "name": "Jefferson Grove ",
    "type": "F",
    "units": 160.0,
    "manager": "Veronica Mann",
    "assistant_mgr": "DeNedra Pearson",
    "compliance": "Gail",
    "address": "414 Jefferson St",
    "city": "Newnan",
    "state": "GA",
    "zip": "30263",
    "office_phone": "470-299-7599",
    "fax": "470-299-7599",
    "manager_email": "jeffersongrove@gatewaymgt.com",
    "rpm": "Arglidian McElheney",
    "rvp": "Toni Raymond",
    "owner": "LDG",
    "legal_entity": "Jefferson Family Development LP",
    "lat": 33.3919902,
    "lng": -84.7803468
  },
  {
    "name": "Jonesboro Road ",
    "type": "55",
    "units": 110.0,
    "manager": "JaniceTannehill",
    "assistant_mgr": "Amber Davis",
    "compliance": "Bendetta",
    "address": "3895 Jonesboro Road ",
    "city": "Fairborn ",
    "state": "GA",
    "zip": "30213",
    "office_phone": "470-915-3820",
    "fax": null,
    "manager_email": "jonesbororoad@gatewaymgt.com ",
    "rpm": "Brenda Jackson",
    "rvp": "Toni Raymond",
    "owner": "Gateway",
    "legal_entity": "Jonesboro Road Senior Village LP",
    "lat": 0.0,
    "lng": 0.0
  },
  {
    "name": "Juanita Gardner ",
    "type": "55",
    "units": 108.0,
    "manager": "Precious Crouch",
    "assistant_mgr": "Antowyneisha Smith",
    "compliance": "Paulette",
    "address": "3650 Bakers Ferry Raod",
    "city": "Adamsville",
    "state": "GA",
    "zip": "30331",
    "office_phone": "470-763-1664",
    "fax": null,
    "manager_email": "juanitagardner@gatewaymgt.com",
    "rpm": "Arglidian McElheney",
    "rvp": "Toni Raymond",
    "owner": "Gateway",
    "legal_entity": "Harmony at Bakers Ferry, LP",
    "lat": 0.0,
    "lng": 0.0
  },
  {
    "name": "Kenyon at Cross Creek, The",
    "type": "F",
    "units": 168.0,
    "manager": "Marquita Crosby",
    "assistant_mgr": "TBD",
    "compliance": "Bendetta",
    "address": "252 Cross Creek Rd.",
    "city": "Central",
    "state": "SC",
    "zip": "29630",
    "office_phone": "864-865-4401",
    "fax": null,
    "manager_email": "kenyonatcrosscreek@gatewaymgt.com",
    "rpm": "Natashia Thompson",
    "rvp": "Melissa Valley",
    "owner": "Gateway",
    "legal_entity": "Gateway at Cross Creek LP",
    "lat": 34.7132033,
    "lng": -82.7868182
  },
  {
    "name": "Kinsey Cove",
    "type": "F",
    "units": 212.0,
    "manager": "Pauline Kirkland",
    "assistant_mgr": null,
    "compliance": "Kimberly",
    "address": "1121 Kinsely Road",
    "city": "Dothan ",
    "state": "AL",
    "zip": "36303",
    "office_phone": "334-792-4548",
    "fax": "334-777-2005",
    "manager_email": "kinseycove@gatewaymgt.com",
    "rpm": "Ciera Armstead | Tere Dykes",
    "rvp": "Paula Hall",
    "owner": "Rob Coats Banyon Foundation",
    "legal_entity": "Capstone At Kinsey Cove, LP",
    "lat": 0.0,
    "lng": 0.0
  },
  {
    "name": "Kirby Creek Apts.",
    "type": "F",
    "units": 56.0,
    "manager": "Belinda Willis",
    "assistant_mgr": null,
    "compliance": "Gail",
    "address": "105 Joyner Road",
    "city": "Cairo",
    "state": "GA",
    "zip": "39828",
    "office_phone": "229-377-4100",
    "fax": "229-394-0091",
    "manager_email": "kirbycreek@gatewaymgt.com",
    "rpm": "Tere Dykes",
    "rvp": "Paula Hall",
    "owner": "Gateway",
    "legal_entity": "Kirby Creek Apartments, LP",
    "lat": 30.8590979,
    "lng": -84.1960669
  },
  {
    "name": "Kirkwood Trail Apts",
    "type": "55",
    "units": 52.0,
    "manager": "TBD",
    "assistant_mgr": null,
    "compliance": "Gail",
    "address": "133 Cason Road",
    "city": "Cedartown",
    "state": "GA",
    "zip": "30125",
    "office_phone": "770-749-9403",
    "fax": "770-854-0826",
    "manager_email": "kirkwood@gatewaymgt.com",
    "rpm": "Anna Walters",
    "rvp": "Erin Loupe",
    "owner": "Gateway",
    "legal_entity": "Kirkwood Trail Apartments, LP",
    "lat": 33.993861,
    "lng": -85.2521797
  },
  {
    "name": "Lakeview Terrace",
    "type": "F",
    "units": 200.0,
    "manager": "TBD",
    "assistant_mgr": "Satone-Brea Anthony",
    "compliance": "Tammy",
    "address": "200 Lakeview Terrace Drive",
    "city": "Augusta",
    "state": "GA",
    "zip": "30909",
    "office_phone": "762-253-3101",
    "fax": null,
    "manager_email": "lakeviewterrace@gatewaymgt.com",
    "rpm": "Sharon Waldo",
    "rvp": "Melissa Valley",
    "owner": "Timshel",
    "legal_entity": null,
    "lat": 0.0,
    "lng": 0.0
  },
  {
    "name": "Laurel Ridge Development",
    "type": "F",
    "units": 70.0,
    "manager": "Innocente Holloman",
    "assistant_mgr": "Jasmine Hood",
    "compliance": "Kimberly",
    "address": "101 Laurel Ridge Avenue W",
    "city": "LaGrange",
    "state": "GA",
    "zip": "30240",
    "office_phone": "706-882-7668",
    "fax": "706-801-4351",
    "manager_email": "laurelridge@gatewaymgt.com",
    "rpm": "Jonathan Marrero",
    "rvp": "Toni Raymond",
    "owner": "Gateway",
    "legal_entity": "Laurel Ridge Development, LP",
    "lat": 33.021691,
    "lng": -85.059374
  },
  {
    "name": "Le Jolliet",
    "type": "F",
    "units": 264.0,
    "manager": "Reve' Landry",
    "assistant_mgr": "Makenzie Ardoin ",
    "compliance": null,
    "address": "4101 5th Avenue",
    "city": "Lake Charles",
    "state": "LA",
    "zip": "70607",
    "office_phone": "337-227-9889",
    "fax": null,
    "manager_email": "lejolliet@gatewaymgt.com",
    "rpm": "TBD",
    "rvp": "Erin Loupe",
    "owner": "LDG",
    "legal_entity": "Le Jolliet LP",
    "lat": 30.1844786,
    "lng": -93.1883399
  },
  {
    "name": "Legacy Universal -RVP Michelle Clark",
    "type": "C",
    "units": 350.0,
    "manager": "Alfredo Etchegoyen",
    "assistant_mgr": "Dayna Dotel",
    "compliance": "NA",
    "address": "7488 Univeral Blvd.",
    "city": "Orlando",
    "state": "FL",
    "zip": "32819",
    "office_phone": "833-282-1905",
    "fax": null,
    "manager_email": "legacyuniversal@gatewaymgt.com",
    "rpm": "Jeyza Cartagena",
    "rvp": "Paula Hall",
    "owner": "Veneto Capital",
    "legal_entity": null,
    "lat": 0.0,
    "lng": 0.0
  },
  {
    "name": "Lory of Greenway Village, The",
    "type": "C",
    "units": 216.0,
    "manager": "Lauren Avery",
    "assistant_mgr": "Tara Sloan",
    "compliance": "NA",
    "address": "179 Trail Loop Drive",
    "city": "Paducah",
    "state": "KY",
    "zip": "42001",
    "office_phone": "270-534-5976",
    "fax": null,
    "manager_email": "loryofgreenway@gatewaymgt.com",
    "rpm": "Jeyza Cartagena",
    "rvp": "Paula Hall",
    "owner": "Lexerd",
    "legal_entity": "LCP Paducah II, LLC",
    "lat": 0.0,
    "lng": 0.0
  },
  {
    "name": "Lory of Panama City, The ",
    "type": "C",
    "units": 160.0,
    "manager": "Rhonda Collins",
    "assistant_mgr": "Alexandria Dixon",
    "compliance": "NA",
    "address": "2121 Harrison Ave",
    "city": "Panama City",
    "state": "FL",
    "zip": "32405",
    "office_phone": "850-784-1366",
    "fax": null,
    "manager_email": "loryofpanamacity@gatewaymgt.com",
    "rpm": "Jeyza Cartagena",
    "rvp": "Paula Hall",
    "owner": "Lexerd",
    "legal_entity": "LCP Panama City, LLC",
    "lat": 30.1863947,
    "lng": -85.6592172
  },
  {
    "name": "Lory of Tallahassee, The  ",
    "type": "C",
    "units": 324.0,
    "manager": "Regina Murray",
    "assistant_mgr": "TBD",
    "compliance": "NA",
    "address": "2915 Sharer Rd",
    "city": "Tallahassee",
    "state": "FL",
    "zip": "32312",
    "office_phone": "850- 391-3030",
    "fax": null,
    "manager_email": "loryoftallahassee@gatewaymgt.com",
    "rpm": "Jeyza Cartagena",
    "rvp": "Paula Hall",
    "owner": "Lexerd",
    "legal_entity": "LCP Tallahassee, LLC",
    "lat": 30.4793632,
    "lng": -84.2952908
  },
  {
    "name": "Loxley Station Development",
    "type": "F",
    "units": 48.0,
    "manager": "TBD",
    "assistant_mgr": null,
    "compliance": "Amber",
    "address": "63 Ribbon Rail Court",
    "city": "Loxley ",
    "state": "AL",
    "zip": "36551",
    "office_phone": "251-960-3300",
    "fax": "251-589-7919",
    "manager_email": "loxley@gatewaymgt.com",
    "rpm": "Kat Butts",
    "rvp": "Paula Hall",
    "owner": "Gateway",
    "legal_entity": "Gulf Coast Capital LP",
    "lat": 0.0,
    "lng": 0.0
  },
  {
    "name": "Mallard Crossing",
    "type": "F",
    "units": 192.0,
    "manager": "Ticoka Hines",
    "assistant_mgr": "Qairess Winston",
    "compliance": null,
    "address": "11320 Greenwell Springs Rd.",
    "city": "Baton Rouge",
    "state": "LA",
    "zip": "70814",
    "office_phone": "225-258-2602",
    "fax": null,
    "manager_email": "mallardcrossing@gatewaymgt.com",
    "rpm": "Tina Ard",
    "rvp": "Erin Loupe",
    "owner": "LDG",
    "legal_entity": "Mallard Crossings, LP.",
    "lat": 30.4941023,
    "lng": -91.0564709
  },
  {
    "name": "Mallard Lake Apts",
    "type": "F",
    "units": 72.0,
    "manager": "TBD",
    "assistant_mgr": "TBD",
    "compliance": "Kimberly",
    "address": "110 Old Airport Road",
    "city": "LaGrange",
    "state": "GA",
    "zip": "30240",
    "office_phone": "706-443-5330",
    "fax": "706-443-5331",
    "manager_email": "mallardlake@gatewaymgt.com",
    "rpm": "Jonathan Marrero",
    "rvp": "Toni Raymond",
    "owner": "Gateway",
    "legal_entity": "Mallard Lake Apartments, LP.",
    "lat": 33.021732,
    "lng": -85.0699417
  },
  {
    "name": "Mandell, The",
    "type": "F",
    "units": 136.0,
    "manager": "TBD",
    "assistant_mgr": "TBD",
    "compliance": "Becky",
    "address": "10888 Buddy Ellis Road",
    "city": "Denham Springs",
    "state": "LA",
    "zip": null,
    "office_phone": "225-664-5037",
    "fax": null,
    "manager_email": "themandell@gatewaymgt.com",
    "rpm": "Trisha Chauvin",
    "rvp": "Erin Loupe",
    "owner": "Gateway",
    "legal_entity": "Gateway Denham Springs LLC",
    "lat": 0.0,
    "lng": 0.0
  },
  {
    "name": "Maple Square",
    "type": "55",
    "units": 56.0,
    "manager": "Yanna Ashe",
    "assistant_mgr": "Iris Guevara",
    "compliance": "Paulette",
    "address": "50 Nelson Drive",
    "city": "Jeferson",
    "state": "GA",
    "zip": "30549",
    "office_phone": "706-367-7850",
    "fax": "706-616-6401",
    "manager_email": "maplesquare@gatewaymgt.com",
    "rpm": "Brandi Harris",
    "rvp": "Toni Raymond",
    "owner": "Gateway",
    "legal_entity": "Maple Square Apartments, LTD",
    "lat": 0.0,
    "lng": 0.0
  },
  {
    "name": "Mary Leila Lofts",
    "type": "F",
    "units": 71.0,
    "manager": "Marqueta Leak",
    "assistant_mgr": null,
    "compliance": "Becky",
    "address": "316 North West Street",
    "city": "Greensboro",
    "state": "GA",
    "zip": "30642",
    "office_phone": "706-454-5047",
    "fax": null,
    "manager_email": "maryleilalofts@gatewaymgt.com",
    "rpm": "Sharon Waldo",
    "rvp": "Melissa Valley",
    "owner": "RHG",
    "legal_entity": "Greensboro Mill LP",
    "lat": 33.5781868,
    "lng": -83.1838324
  },
  {
    "name": "Maxwell, The ",
    "type": "C",
    "units": 200.0,
    "manager": "Jessika Williams",
    "assistant_mgr": "Savannah Holden",
    "compliance": "NA",
    "address": "100 Woodrow Wilson way NW",
    "city": "Rome ",
    "state": "GA",
    "zip": "30165",
    "office_phone": "706-528-1110",
    "fax": null,
    "manager_email": "TheMaxwell@gatewaymgt.com",
    "rpm": "Jeyza Cartagena",
    "rvp": "Paula Hall",
    "owner": "Gateway",
    "legal_entity": "Gateway at Rome Manager LLC",
    "lat": 34.279654,
    "lng": -85.194122
  },
  {
    "name": "Meadowood Creek",
    "type": "55",
    "units": 42.0,
    "manager": "Barbara Barron",
    "assistant_mgr": null,
    "compliance": "Paulette",
    "address": "676 County Highway 4",
    "city": "Winfield",
    "state": "AL",
    "zip": "35594",
    "office_phone": "205-634-4501",
    "fax": null,
    "manager_email": "meadowoodcreek@gatewaymgt.com",
    "rpm": "T'arra Brown",
    "rvp": "Erin Loupe",
    "owner": "Gateway",
    "legal_entity": "Meadowood Creek Senior Apartments",
    "lat": 0.0,
    "lng": 0.0
  },
  {
    "name": "Meadows at Nicholson ",
    "type": "F",
    "units": 204.0,
    "manager": "Sharonda Brooks",
    "assistant_mgr": "Shirmelle Dyer",
    "compliance": null,
    "address": "11777 Nicholson Drive",
    "city": "Baton Rouge",
    "state": "LA",
    "zip": "70810",
    "office_phone": "225-314-9220",
    "fax": null,
    "manager_email": "meadowsatnicholson@gatewaymgt.com",
    "rpm": "Tina Ard",
    "rvp": "Erin Loupe",
    "owner": "LDG",
    "legal_entity": "Meadows at Nicholson, LP",
    "lat": 30.3654715,
    "lng": -91.1548987
  },
  {
    "name": "Newport Trace",
    "type": "55",
    "units": 42.0,
    "manager": "Tammy Waller",
    "assistant_mgr": null,
    "compliance": "Gail",
    "address": "101 Coach Lee Boulevard",
    "city": "Statesboro",
    "state": "GA",
    "zip": "30458",
    "office_phone": "912-243-9096",
    "fax": "912-385-0214",
    "manager_email": "newporttrace@gatewaymgt.com",
    "rpm": "Chantelle Boone",
    "rvp": "Toni Raymond",
    "owner": "Gateway",
    "legal_entity": "Newport Trace Apartments, LP",
    "lat": 32.446674,
    "lng": -81.7607559
  },
  {
    "name": "Northwinds",
    "type": "55",
    "units": 102.0,
    "manager": "Jeanette Jones",
    "assistant_mgr": "Dariana Lonon",
    "compliance": "Bendetta",
    "address": "247 Northwinds Blvd",
    "city": "Carrolton ",
    "state": "GA",
    "zip": "30117",
    "office_phone": "470-781-7466",
    "fax": "470-781-7466",
    "manager_email": "northwinds@gatewaymgt.com",
    "rpm": "Trisha Chauvin",
    "rvp": "Erin Loupe",
    "owner": "Gateway",
    "legal_entity": "Northwinds Place Senior Living LP",
    "lat": 0.0,
    "lng": 0.0
  },
  {
    "name": "Oakland Mill  ",
    "type": "55",
    "units": 42.0,
    "manager": "Demetria Byrd",
    "assistant_mgr": null,
    "compliance": "Tammy",
    "address": "101 Nelson Drive",
    "city": "Lincolnton",
    "state": "NC",
    "zip": "28092",
    "office_phone": "704-736-1222 ",
    "fax": "980-284-6939",
    "manager_email": "oaklandmills@gatewaymgt.com",
    "rpm": "Melissa Valley",
    "rvp": "Melissa Valley",
    "owner": "Gateway",
    "legal_entity": "Oakland Mill Apartments LP",
    "lat": 0.0,
    "lng": 0.0
  },
  {
    "name": "Oakleigh Crossing",
    "type": "F",
    "units": 56.0,
    "manager": "TBD",
    "assistant_mgr": null,
    "compliance": "Mitzi",
    "address": "1963 Hwy 22W",
    "city": "Alexander City",
    "state": "AL",
    "zip": "35010",
    "office_phone": "256-853-0940",
    "fax": null,
    "manager_email": "oakleighcrossing@gatewaymgt.com",
    "rpm": "Trisha Chauvin",
    "rvp": "Erin Loupe",
    "owner": "RHG",
    "legal_entity": null,
    "lat": 0.0,
    "lng": 0.0
  },
  {
    "name": "Oleander Park Apts.",
    "type": "55",
    "units": 56.0,
    "manager": "Chiquita Hill",
    "assistant_mgr": null,
    "compliance": "Tammy",
    "address": "7646 Cottage Hill Road",
    "city": "Mobile",
    "state": "AL",
    "zip": "36695",
    "office_phone": "251-639-1355",
    "fax": "251-589-7911",
    "manager_email": "oleander@gatewaymgt.com",
    "rpm": "Kimberly Tunstall",
    "rvp": "Paula Hall",
    "owner": "Gateway",
    "legal_entity": "Oleander Park Apartments, LTD",
    "lat": 30.637326,
    "lng": -88.220557
  },
  {
    "name": "Orchard Park",
    "type": "F",
    "units": 10.0,
    "manager": "Susan Moncrief",
    "assistant_mgr": null,
    "compliance": "Tammy",
    "address": "629 State Hwy 21 S",
    "city": "Hayneville",
    "state": "AL",
    "zip": "36040",
    "office_phone": "334-290-7744",
    "fax": "334-513-8689",
    "manager_email": "orchard@gatewaymgt.com",
    "rpm": "Kat Butts",
    "rvp": "Paula Hall",
    "owner": "Gateway",
    "legal_entity": "Orchard Park Apartments",
    "lat": 0.0,
    "lng": 0.0
  },
  {
    "name": "Orchard View ",
    "type": "55",
    "units": 56.0,
    "manager": "Tracy Moualhi",
    "assistant_mgr": null,
    "compliance": "Gail",
    "address": "82 Snodgrass Road ",
    "city": "Scottsboro",
    "state": "AL",
    "zip": "35769",
    "office_phone": "256-844-2288",
    "fax": null,
    "manager_email": "orchardview@gateaymgt.com",
    "rpm": "Anna Walters",
    "rvp": "Erin Loupe",
    "owner": "Gateway",
    "legal_entity": "Orchard View Apartments",
    "lat": 34.6758371,
    "lng": -85.9821255
  },
  {
    "name": "Palladian Apts., The",
    "type": "F",
    "units": 80.0,
    "manager": "Chiquita Hill",
    "assistant_mgr": "Kiosha Patterson",
    "compliance": "Paulette",
    "address": "2225 Leroy Stevens Rd.",
    "city": "Mobile",
    "state": "AL",
    "zip": "36695",
    "office_phone": "251-725-0046",
    "fax": "251-206-6376 ",
    "manager_email": "palladian@gatewaymgt.com",
    "rpm": "Kimberly Tunstall",
    "rvp": "Paula Hall",
    "owner": "Gateway",
    "legal_entity": "The Palladian Apartments, LTD",
    "lat": 30.6461124,
    "lng": -88.2327363
  },
  {
    "name": "Palladian at Fairhope",
    "type": "C",
    "units": 62.0,
    "manager": "TBD",
    "assistant_mgr": null,
    "compliance": "NA",
    "address": "8132 Gayfer Road Ext",
    "city": "Fairhope",
    "state": "AL",
    "zip": "36532",
    "office_phone": "251-210-6038",
    "fax": "251-295-9299",
    "manager_email": "palladianfairhope@gatewaymgt.com",
    "rpm": "Kimberly Tunstall",
    "rvp": "Paula Hall",
    "owner": "Gateway",
    "legal_entity": "Fairhope Ridge, LLC",
    "lat": 0.0,
    "lng": 0.0
  },
  {
    "name": "Palladian II Apts.",
    "type": "F",
    "units": 32.0,
    "manager": "Chiquita Hill",
    "assistant_mgr": "Kiosha Patterson",
    "compliance": "Paulette",
    "address": "2135 Leroy Stevens Rd",
    "city": "Mobile",
    "state": "AL",
    "zip": "36695",
    "office_phone": "251-725-0046",
    "fax": "251-206-6376 ",
    "manager_email": "palladian2@gatewaymgt.com",
    "rpm": "Kimberly Tunstall",
    "rvp": "Paula Hall",
    "owner": "Gateway",
    "legal_entity": "The Palladian II Apartments, LTD",
    "lat": 30.6649893,
    "lng": -88.2372065
  },
  {
    "name": "Peach Orchard ",
    "type": "F",
    "units": 240.0,
    "manager": "Shelia Yancey",
    "assistant_mgr": "Phaedra Berry",
    "compliance": "Tammy",
    "address": "3630 Peach Orchard Rd",
    "city": "Augusta",
    "state": "GA",
    "zip": "30906",
    "office_phone": "706-432-2121",
    "fax": "(706) 550-6383",
    "manager_email": "peachorchard@gatewaymgt.com",
    "rpm": "Sharon Waldo",
    "rvp": "Melissa Valley",
    "owner": "LDG",
    "legal_entity": null,
    "lat": 33.3691586,
    "lng": -82.0349074
  },
  {
    "name": "Peaks at Manning, The",
    "type": "55",
    "units": 42.0,
    "manager": "Minnie Sabb",
    "assistant_mgr": null,
    "compliance": "Tammy",
    "address": "121 Kennedy Lane",
    "city": "Manning",
    "state": "SC",
    "zip": "29201",
    "office_phone": "803-830-4995",
    "fax": "(803) 830-4995",
    "manager_email": "peaksatmanning@gatewaymgt.com",
    "rpm": "Natashia Thompson",
    "rvp": "Melissa Valley",
    "owner": "RHG",
    "legal_entity": "The Peaks at Manning, LP",
    "lat": 33.6962838,
    "lng": -80.2161795
  },
  {
    "name": "Peaks of Cornelia ",
    "type": "F",
    "units": 80.0,
    "manager": "Adrienne Collins",
    "assistant_mgr": null,
    "compliance": "TBD",
    "address": "100 Peaks Circle",
    "city": "Cornelia",
    "state": "GA",
    "zip": "30531",
    "office_phone": "706-778-6000",
    "fax": null,
    "manager_email": "peaksofcornelia@gatewaymgt.com",
    "rpm": "Brandi Harris",
    "rvp": "Toni Raymond",
    "owner": "RHG",
    "legal_entity": "Peaks of Cornelia LP",
    "lat": 0.0,
    "lng": 0.0
  },
  {
    "name": "Peaks of Dahlonega - Lease-up",
    "type": "F",
    "units": 60.0,
    "manager": "Juanita Cunningham",
    "assistant_mgr": null,
    "compliance": "Gail",
    "address": "4000 Peaks Circle",
    "city": "Dahlonega",
    "state": "GA",
    "zip": "30533",
    "office_phone": "762-274-1400",
    "fax": null,
    "manager_email": "peaksofdahlonega@gatewaymgt.com",
    "rpm": "T'arra Brown",
    "rvp": "Erin Loupe",
    "owner": "RHG",
    "legal_entity": "Peaks of Dahlonega LP",
    "lat": 0.0,
    "lng": 0.0
  },
  {
    "name": "Peaks of Dawson",
    "type": "F",
    "units": 80.0,
    "manager": "Renee Longshore",
    "assistant_mgr": null,
    "compliance": "Becky",
    "address": "6001 Peaks Circle",
    "city": "Dawsonville",
    "state": "GA",
    "zip": "30534",
    "office_phone": "706-429-0090",
    "fax": null,
    "manager_email": "peaksofdawson@gatewaymgt.com",
    "rpm": "T'arra Brown",
    "rvp": "Erin Loupe",
    "owner": "RHG",
    "legal_entity": " Peaks of Dawson LP",
    "lat": 34.3667137,
    "lng": -84.0364142
  },
  {
    "name": "Peaks of Oakwood",
    "type": "F",
    "units": 84.0,
    "manager": "Chikere Fedrick",
    "assistant_mgr": null,
    "compliance": "TBD",
    "address": "3500 Peaks Circle",
    "city": "Oakwood",
    "state": "GA",
    "zip": "30542",
    "office_phone": "678-696-5071",
    "fax": null,
    "manager_email": "peaksofoakwood@gatewaymgt.com",
    "rpm": "Brandi Harris",
    "rvp": "Toni Raymond",
    "owner": "RHG",
    "legal_entity": "Peaks of Oakwood LP",
    "lat": 0.0,
    "lng": 0.0
  },
  {
    "name": "Pebble Creek Apts.",
    "type": "F",
    "units": 24.0,
    "manager": "Christina Dempsey",
    "assistant_mgr": null,
    "compliance": "Gail",
    "address": "803 Vanity Fair Ave.",
    "city": "Butler",
    "state": "AL",
    "zip": "36904",
    "office_phone": "205-459-7488",
    "fax": "205-459-7488",
    "manager_email": "pebble@gatewaymgt.com",
    "rpm": "Trisha Chauvin",
    "rvp": "Erin Loupe",
    "owner": "Gateway",
    "legal_entity": "Pebble Creek Apartments, LTD.",
    "lat": 32.0955766,
    "lng": -88.2086714
  },
  {
    "name": "Pelican Landing",
    "type": "F",
    "units": 64.0,
    "manager": "Reagan Abner",
    "assistant_mgr": null,
    "compliance": "Amber",
    "address": "860 West Point Plaza",
    "city": "Mobile",
    "state": "AL",
    "zip": "36608",
    "office_phone": "251-639-9900",
    "fax": "(251) 929-4721",
    "manager_email": "pelicanlanding@gatewaymgt.com",
    "rpm": "Kat Butts",
    "rvp": "Paula Hall",
    "owner": "Gateway",
    "legal_entity": "Pelican Landing Apartments, LTD",
    "lat": 0.0,
    "lng": 0.0
  },
  {
    "name": "Peyton Ridge Village ",
    "type": "55",
    "units": 56.0,
    "manager": "Porshis Brooks",
    "assistant_mgr": null,
    "compliance": "Kimberly",
    "address": "14928 Peyton Drive",
    "city": "Athens",
    "state": "AL",
    "zip": "35613",
    "office_phone": "256-278-3400",
    "fax": "256-278-3400",
    "manager_email": "peytonridge@gatewaymgt.com",
    "rpm": "Shirley Greer",
    "rvp": "Paula Hall",
    "owner": "Gateway",
    "legal_entity": "Peyton Ridge Village, LTD",
    "lat": 34.7721394,
    "lng": -86.9065758
  },
  {
    "name": "Pinewood Village",
    "type": "55",
    "units": 64.0,
    "manager": "Tanisha Cummings",
    "assistant_mgr": "KiJana Glover",
    "compliance": "Amber",
    "address": "755 S. Rogers Street",
    "city": "Pooler",
    "state": "GA",
    "zip": "31322",
    "office_phone": "912-348-2281",
    "fax": "912-225-6112",
    "manager_email": "pinewood@gatewaymgt.com",
    "rpm": "Chantelle Boone",
    "rvp": "Toni Raymond",
    "owner": "Gateway",
    "legal_entity": null,
    "lat": 32.1114579,
    "lng": -81.251265
  },
  {
    "name": "Pinewood Village II ",
    "type": "55",
    "units": 60.0,
    "manager": "Tanisha Cummings",
    "assistant_mgr": "KiJana Glover",
    "compliance": "Amber",
    "address": "755 S. Rogers Street",
    "city": "Pooler",
    "state": "GA",
    "zip": "31322",
    "office_phone": "912-348-2281",
    "fax": "912-225-6112",
    "manager_email": "pinewood@gatewaymgt.com",
    "rpm": "Chantelle Boone",
    "rvp": "Toni Raymond",
    "owner": "Gateway",
    "legal_entity": null,
    "lat": 32.1114579,
    "lng": -81.251265
  },
  {
    "name": "Port Royal Apts ",
    "type": "F",
    "units": 192.0,
    "manager": "LaQuechia Jackson-Robertson ",
    "assistant_mgr": "Jennifer Perry",
    "compliance": null,
    "address": "6454 Airline Hwy.",
    "city": "Baton Rouge",
    "state": "LA",
    "zip": "70805",
    "office_phone": "225-930-8183",
    "fax": null,
    "manager_email": "portroyal@gatewaymgt.com",
    "rpm": "Tina Ard",
    "rvp": "Erin Loupe",
    "owner": "LDG",
    "legal_entity": "Port Royal Development LP",
    "lat": 30.4945723,
    "lng": -91.1262773
  },
  {
    "name": "Powell Place Apts",
    "type": "F",
    "units": 64.0,
    "manager": "Kindell Nelson",
    "assistant_mgr": null,
    "compliance": "Paulette",
    "address": "200 Ward Drive",
    "city": "Barnesville",
    "state": "GA",
    "zip": "30204",
    "office_phone": "770-358-9080",
    "fax": "470-205-2683",
    "manager_email": "powellplace@gatewaymgt.com",
    "rpm": "Trisha Chauvin",
    "rvp": "Erin Loupe",
    "owner": "Gateway",
    "legal_entity": "Powell Place Apartments, LP",
    "lat": 33.0501696,
    "lng": -84.1776879
  },
  {
    "name": "Preston Place Apts",
    "type": "F",
    "units": 40.0,
    "manager": "Jana Fletcher",
    "assistant_mgr": null,
    "compliance": "Paulette",
    "address": "100 Phillips Dr",
    "city": "Quitman",
    "state": "GA",
    "zip": "31643",
    "office_phone": "229-605-0040",
    "fax": "229-434-8199",
    "manager_email": "prestonplace@gatewaymgt.com",
    "rpm": "Tere Dykes",
    "rvp": "Paula Hall",
    "owner": "Gateway",
    "legal_entity": null,
    "lat": 0.0,
    "lng": 0.0
  },
  {
    "name": "Red Cedar Village  ",
    "type": "RD-62",
    "units": 40.0,
    "manager": "Pamela Minix",
    "assistant_mgr": null,
    "compliance": "Amber",
    "address": "20879 Red Cedar Drive",
    "city": "Harrah",
    "state": "OK",
    "zip": "73045",
    "office_phone": "405-708-6055",
    "fax": null,
    "manager_email": "redcedarvillage@gatewaymgt.com ",
    "rpm": "Diana Stoflet",
    "rvp": "Erin Loupe",
    "owner": "RHG",
    "legal_entity": "Red Cedar Village",
    "lat": 35.4758192,
    "lng": -97.1606122
  },
  {
    "name": "Reserve at Grant Road",
    "type": "55",
    "units": 122.0,
    "manager": "Aja Parker",
    "assistant_mgr": "Crystal Rivers",
    "compliance": "Gail",
    "address": "4209 Grant Road",
    "city": "Ellenwood",
    "state": "GA",
    "zip": "30294",
    "office_phone": "770-742-2001",
    "fax": "770-742-2003",
    "manager_email": "reserveatgrantroad@gatewaymgt.com",
    "rpm": "Brenda Jackson",
    "rvp": "Toni Raymond",
    "owner": "Gateway",
    "legal_entity": "Harmony at Ellenwood LP",
    "lat": 33.6167553,
    "lng": -84.296263
  },
  {
    "name": "Rivers Edge",
    "type": "F",
    "units": 48.0,
    "manager": "Destiney Taylor",
    "assistant_mgr": null,
    "compliance": "Amber",
    "address": "1416 Main Street East",
    "city": "Hartselle",
    "state": "AL",
    "zip": "35640",
    "office_phone": "256-792--2800",
    "fax": "256-567-3475",
    "manager_email": "riversedge@gatewaymgt.com",
    "rpm": "Shirley Greer",
    "rvp": "Paula Hall",
    "owner": "Gateway",
    "legal_entity": "Rivers Edge Apartments, LTD",
    "lat": 34.449272,
    "lng": -86.9127253
  },
  {
    "name": "Rose Rock Cottages",
    "type": "62",
    "units": 36.0,
    "manager": "Bonnie Westmoe",
    "assistant_mgr": null,
    "compliance": "Tammy",
    "address": "1014 Rose Rock Lane",
    "city": "Noble",
    "state": "OK",
    "zip": "73068",
    "office_phone": "405-310-1676",
    "fax": null,
    "manager_email": "roserock@gatewaymgt.com ",
    "rpm": "Diana Stoflet",
    "rvp": "Erin Loupe",
    "owner": "RHG",
    "legal_entity": null,
    "lat": 35.1252835,
    "lng": -97.3852323
  },
  {
    "name": "Shellbrooke Pointe Apts.",
    "type": "F",
    "units": 96.0,
    "manager": "Barbara Butts",
    "assistant_mgr": "Hether Abrams",
    "compliance": "Bendetta",
    "address": "7684 Twin Beach Road",
    "city": "Fairhope",
    "state": "AL",
    "zip": "36532",
    "office_phone": "251-990-6262",
    "fax": "251-206-6371 ",
    "manager_email": "shellbrooke@gatewaymgt.com",
    "rpm": "Kimberly Tunstall",
    "rvp": "Paula Hall",
    "owner": "Gateway",
    "legal_entity": "Shellbrooke Pointe Apartments, LTD",
    "lat": 30.4969515,
    "lng": -87.9155661
  },
  {
    "name": "Sheppard Station Dev. ",
    "type": "55",
    "units": 65.0,
    "manager": "Monica Anderson",
    "assistant_mgr": null,
    "compliance": "Amber",
    "address": "215 Brighton Woods Dr. ",
    "city": "Pooler",
    "state": "GA",
    "zip": "31322",
    "office_phone": "912-748-0495",
    "fax": "912-297-6755",
    "manager_email": "sheppard@gatewaymgt.com",
    "rpm": "Chantelle Boone",
    "rvp": "Toni Raymond",
    "owner": "Gateway",
    "legal_entity": "Sheppard Station Apts, LP",
    "lat": 32.115604,
    "lng": -81.265079
  },
  {
    "name": "Shoals Mill Development ",
    "type": "S",
    "units": 46.0,
    "manager": "Cindy Knowles",
    "assistant_mgr": null,
    "compliance": "Bendetta",
    "address": "55 Coby Lane",
    "city": "Columbiana",
    "state": "AL",
    "zip": "35051",
    "office_phone": "205-670-5111",
    "fax": "205-671-0100",
    "manager_email": "shoalsmill@gatewaymgt.com",
    "rpm": "T'arra Brown",
    "rvp": "Erin Loupe",
    "owner": "Gateway",
    "legal_entity": "The Shoals Mill Development, LTD",
    "lat": 33.189778,
    "lng": -86.5987847
  },
  {
    "name": "Shoals Mill Village ",
    "type": "55",
    "units": 30.0,
    "manager": "Cindy Knowles",
    "assistant_mgr": null,
    "compliance": "Bendetta",
    "address": "300 Shoals Mill Lane",
    "city": "Columbiana",
    "state": "AL",
    "zip": "35051",
    "office_phone": "205-235-6880",
    "fax": "205-671-0100",
    "manager_email": "shoalsmill@gatewaymgt.com",
    "rpm": "T'arra Brown",
    "rvp": "Erin Loupe",
    "owner": "Gateway",
    "legal_entity": "Shoals Mill Village Apartments LTD",
    "lat": 0.0,
    "lng": 0.0
  },
  {
    "name": "SkyHouse RVP Michelle Clark",
    "type": "C",
    "units": 320.0,
    "manager": "William Cruz",
    "assistant_mgr": "Bryan Carmenate",
    "compliance": "NA",
    "address": "335 N Magnolia Ave",
    "city": "Orlando",
    "state": "FL",
    "zip": "32801",
    "office_phone": "407-650-9005",
    "fax": null,
    "manager_email": "skyhouse@gatewaymgt.com",
    "rpm": "Jeyza Cartagena",
    "rvp": "Paula Hall",
    "owner": "Veneto Capital",
    "legal_entity": "Silver ND I LLC",
    "lat": 28.5471377,
    "lng": -81.3774519
  },
  {
    "name": "Skyline Trace",
    "type": "F",
    "units": 64.0,
    "manager": "Yanna Ashe",
    "assistant_mgr": null,
    "compliance": "Gail",
    "address": "600 Ridge Rd. ",
    "city": "Monroe",
    "state": "GA",
    "zip": "30655",
    "office_phone": "678-635-8808",
    "fax": "678-391-4013",
    "manager_email": "skyline@gatewaymgt.com",
    "rpm": "Brandi Harris",
    "rvp": "Toni Raymond",
    "owner": "Gateway",
    "legal_entity": "Skyline Trace Apartments LP",
    "lat": 33.796917,
    "lng": -83.724554
  },
  {
    "name": "South Pointe Development",
    "type": "F",
    "units": 47.0,
    "manager": "Tabitha Borden",
    "assistant_mgr": null,
    "compliance": "Bendetta",
    "address": "203 Shiloh Creek Drive",
    "city": "Calera",
    "state": "AL",
    "zip": "35040",
    "office_phone": "205-668-1196",
    "fax": "205-686-4532",
    "manager_email": "southpointe@gatewaymgt.com",
    "rpm": "T'arra Brown",
    "rvp": "Erin Loupe",
    "owner": "Gateway",
    "legal_entity": "South Pointe Development, LTD.",
    "lat": 0.0,
    "lng": 0.0
  },
  {
    "name": "Sovereign at North Bay - Lease up",
    "type": "F",
    "units": 144.0,
    "manager": "Gloria Hurley",
    "assistant_mgr": null,
    "compliance": "Paulette",
    "address": "1800 Florida Avenue",
    "city": "Panama City",
    "state": "FL",
    "zip": "32405",
    "office_phone": "850-784-7701",
    "fax": null,
    "manager_email": "northbay@gatewaymgt.com",
    "rpm": "Ciera Armstead | Tere Dykes",
    "rvp": "Paula Hall",
    "owner": "Strategic Group",
    "legal_entity": "Bid-A-Wee Apartments, LLC",
    "lat": 30.1821106,
    "lng": -85.668332
  },
  {
    "name": "Sterling Oaks",
    "type": "F",
    "units": 56.0,
    "manager": "Dara Gamble",
    "assistant_mgr": null,
    "compliance": "Bendetta",
    "address": "131 Armstrong Drive ",
    "city": "Spindale",
    "state": "NC",
    "zip": "28160",
    "office_phone": "828-214-7381",
    "fax": "828-220-3536",
    "manager_email": "sterlingoaks@gatewaymgt.com",
    "rpm": "Melissa Valley",
    "rvp": "Melissa Valley",
    "owner": "Gateway",
    "legal_entity": "Sterling Oaks Apartments LP",
    "lat": 35.3678645,
    "lng": -81.9400432
  },
  {
    "name": "Stoney Creek",
    "type": "55",
    "units": 44.0,
    "manager": "Donna Faulk",
    "assistant_mgr": null,
    "compliance": "Gail",
    "address": "317 Plaza Road",
    "city": "Laurinburg",
    "state": "NC",
    "zip": "28352",
    "office_phone": "910- 506-2254",
    "fax": null,
    "manager_email": "stoneycreek@gatewaymgt.com",
    "rpm": "Melissa Valley",
    "rvp": "Melissa Valley",
    "owner": "Gateway",
    "legal_entity": "Stoney Creek Apartments, LP",
    "lat": 34.7591487,
    "lng": -79.4773747
  },
  {
    "name": "Stony Ridge Apts ",
    "type": "F",
    "units": 56.0,
    "manager": "Porsche Kincaid",
    "assistant_mgr": null,
    "compliance": "Bendetta",
    "address": "108 Lincoln Street",
    "city": "Hogansville",
    "state": "GA",
    "zip": "30230",
    "office_phone": "706-637-9300",
    "fax": "706-813-4344",
    "manager_email": "stonyridge@gatewaymgt.com",
    "rpm": "Jonathan Marrero",
    "rvp": "Toni Raymond",
    "owner": "Gateway",
    "legal_entity": "Stony Ridge Apartments, LP",
    "lat": 33.1679362,
    "lng": -84.9008663
  },
  {
    "name": "Stony Ridge Apts II",
    "type": "F",
    "units": 44.0,
    "manager": "Porsche Kincaid",
    "assistant_mgr": null,
    "compliance": "Bendetta",
    "address": "108 Lincoln Street",
    "city": "Hogansville",
    "state": "GA",
    "zip": "30230",
    "office_phone": "706-785-9050",
    "fax": "706-813-4344",
    "manager_email": "stonyridge@gatewaymgt.com",
    "rpm": "Jonathan Marrero",
    "rvp": "Toni Raymond",
    "owner": "Gateway",
    "legal_entity": "Stony Ridge II, LP",
    "lat": 33.1679362,
    "lng": -84.9008663
  },
  {
    "name": "Stove Lofts",
    "type": "C",
    "units": 185.0,
    "manager": "Ashley Anderson",
    "assistant_mgr": "Natalea Ehrhardt",
    "compliance": "NA",
    "address": "401 S 2nd Street ",
    "city": "Leavenworth",
    "state": "KS",
    "zip": "66048",
    "office_phone": "913-682-0900",
    "fax": null,
    "manager_email": "stovelofts@gatewaymgt.com",
    "rpm": "Jeyza Cartagena",
    "rvp": "Paula Hall",
    "owner": "Lexerd",
    "legal_entity": "LCP Leavenworth LLC",
    "lat": 39.316676,
    "lng": -94.910143
  },
  {
    "name": "Sullivan Village",
    "type": "55",
    "units": 56.0,
    "manager": "Robert Kiker",
    "assistant_mgr": null,
    "compliance": "Paulette",
    "address": "104 Carrie Lane ",
    "city": "Tuscumbia",
    "state": "AL",
    "zip": "35674",
    "office_phone": "256-978-5042",
    "fax": "256-585-6652",
    "manager_email": "sullivanvillage@gatewaymgt.com",
    "rpm": "Shirley Greer",
    "rvp": "Paula Hall",
    "owner": "Gateway",
    "legal_entity": "Sullivan Village Apartments, LTD",
    "lat": 34.7181817,
    "lng": -87.6907708
  },
  {
    "name": "Sunrise View ",
    "type": "F",
    "units": 240.0,
    "manager": "Loni Richardson",
    "assistant_mgr": "TBD",
    "compliance": "Paulette ",
    "address": "3814 Redan Road",
    "city": "Decatur",
    "state": "GA",
    "zip": "30032",
    "office_phone": "404-905-2250",
    "fax": "404-905-2250",
    "manager_email": "sunriseview@gatewaymgt.com",
    "rpm": "Arglidian McElheney",
    "rvp": "Toni Raymond",
    "owner": "LDG",
    "legal_entity": "Indian Creek Family Development, LP",
    "lat": 0.0,
    "lng": 0.0
  },
  {
    "name": "Sweetwater Terrace ",
    "type": "55",
    "units": 165.0,
    "manager": "Stefanie Love",
    "assistant_mgr": "TBD",
    "compliance": "Becky",
    "address": "3555 Sweetwater Rd",
    "city": "Duluth",
    "state": "GA",
    "zip": "30096",
    "office_phone": "770-921-4488",
    "fax": "(470) 387-9488",
    "manager_email": "sweetwaterterrace@gatewaymgt.com",
    "rpm": "Jonathan Marrero",
    "rvp": "Toni Raymond",
    "owner": "Veneto Capital",
    "legal_entity": "Sweetwater Community Associates LLC",
    "lat": 0.0,
    "lng": 0.0
  },
  {
    "name": "Tattnall Place ",
    "type": "F",
    "units": 97.0,
    "manager": "Jennifer Glover",
    "assistant_mgr": "Tina Paludo-Hart",
    "compliance": "Amber",
    "address": "150 Calhoun Way",
    "city": "Macon",
    "state": "GA",
    "zip": "31201",
    "office_phone": "478-741-4011",
    "fax": "478-845-4800",
    "manager_email": "tattnall@gatewaymgt.com",
    "rpm": "Chantelle Boone",
    "rvp": "Toni Raymond",
    "owner": "Macon Housing",
    "legal_entity": null,
    "lat": 32.831909,
    "lng": -83.6436508
  },
  {
    "name": "The Peaks of Tazewell ",
    "type": "F",
    "units": 56.0,
    "manager": "Maria Daniels",
    "assistant_mgr": null,
    "compliance": "Paulette",
    "address": "474 Tom Ball Road",
    "city": "Tazewell",
    "state": "TN",
    "zip": "37879",
    "office_phone": "423-259-8118",
    "fax": "423-453-3049",
    "manager_email": "tazewell@gatewaymgt.com",
    "rpm": "Anna Walters",
    "rvp": "Erin Loupe",
    "owner": "RHG",
    "legal_entity": "Peaks of Tazewell, LP",
    "lat": 36.4381828,
    "lng": -83.5682792
  },
  {
    "name": "Tranquility at Decatur - Lease up ",
    "type": "F",
    "units": 160.0,
    "manager": "Dorea Chaney",
    "assistant_mgr": "Elizabeth Burney",
    "compliance": "Tammy",
    "address": "2747 Kelly Lake Road",
    "city": "Decatur",
    "state": "GA",
    "zip": "30035",
    "office_phone": "943-200-9501",
    "fax": null,
    "manager_email": "tranquilityatdecatur@gatewaymgt.com",
    "rpm": "Jonathan Marrero",
    "rvp": "Toni Raymond",
    "owner": "Timshel",
    "legal_entity": null,
    "lat": 0.0,
    "lng": 0.0
  },
  {
    "name": "Tranquility at Ferry Pass ",
    "type": "F",
    "units": 36.0,
    "manager": "Tieannaca Lewis",
    "assistant_mgr": "Santiria Williams",
    "compliance": "Bendetta",
    "address": "8319 Carl Dean Street",
    "city": "Pensacola ",
    "state": "FL",
    "zip": "32514",
    "office_phone": "850-462-3001",
    "fax": null,
    "manager_email": "tranquilityatferrypass@gatewaymgt.com",
    "rpm": "Kat Butts",
    "rvp": "Paula Hall",
    "owner": "Timshel",
    "legal_entity": "Timshel Ferry Pass Housing LLC",
    "lat": 0.0,
    "lng": 0.0
  },
  {
    "name": "Tranquility at Griffin",
    "type": "F",
    "units": 120.0,
    "manager": "Brittnie Colin",
    "assistant_mgr": "TBD",
    "compliance": "Becky",
    "address": "2173 North Expressway",
    "city": "Griffin",
    "state": "GA",
    "zip": "30223",
    "office_phone": "770-615-8600",
    "fax": "770-615-8600",
    "manager_email": "tranquilitygriffin@gatewaymgt.com",
    "rpm": "Brenda Jackson",
    "rvp": "Toni Raymond",
    "owner": "Gateway",
    "legal_entity": "Tranquility at Griffin, LP",
    "lat": 33.2667233,
    "lng": -84.2897646
  },
  {
    "name": "Tranquility at Hope School",
    "type": "F",
    "units": 30.0,
    "manager": "Jennifer Floyd",
    "assistant_mgr": null,
    "compliance": "Kimberly",
    "address": "1999 Hope School Drive",
    "city": "Marianna",
    "state": "FL",
    "zip": "32448",
    "office_phone": "850-526-0603",
    "fax": "850-387-2866",
    "manager_email": "tranquilityathopeschool@gatewaymgt.com",
    "rpm": "Ciera Armstead | Tere Dykes",
    "rvp": "Paula Hall",
    "owner": "Timshel",
    "legal_entity": "East Lake Florida 2, LLC",
    "lat": 0.0,
    "lng": 0.0
  },
  {
    "name": "Tranquility at Hope School II ",
    "type": "F",
    "units": 32.0,
    "manager": "Jennifer Floyd",
    "assistant_mgr": null,
    "compliance": "Kimberly",
    "address": "1999 Hope School Drive",
    "city": "Marianna",
    "state": "FL",
    "zip": "32448",
    "office_phone": "850-526-0603",
    "fax": "850-387-2866",
    "manager_email": "tranquilityathopeschool@gatewaymgt.com",
    "rpm": "Ciera Armstead | Tere Dykes",
    "rvp": "Paula Hall",
    "owner": "Timshel",
    "legal_entity": "East Lake Florida 3, LLC",
    "lat": 0.0,
    "lng": 0.0
  },
  {
    "name": "Tranquility at Milton ",
    "type": "F",
    "units": 72.0,
    "manager": "Tieannaca Lewis",
    "assistant_mgr": "Santiria Williams",
    "compliance": "Paulette",
    "address": "4946 Lambert Lane",
    "city": "Milton ",
    "state": "FL",
    "zip": "32570",
    "office_phone": "850-400-8050",
    "fax": null,
    "manager_email": "tranquilityatmilton@gatewaymgt.com",
    "rpm": "Kat Butts",
    "rvp": "Paula Hall",
    "owner": "Timshel",
    "legal_entity": "Tranquility Milton, LLC",
    "lat": 0.0,
    "lng": 0.0
  },
  {
    "name": "Tucker Cottages",
    "type": "55",
    "units": 50.0,
    "manager": "Innocente Holloman",
    "assistant_mgr": "Jasmine Hood",
    "compliance": "Amber",
    "address": "301 Jordan Way",
    "city": "LaGrange",
    "state": "GA",
    "zip": "30240",
    "office_phone": "706-443-5131",
    "fax": "706-526-4776",
    "manager_email": "tuckercottages@gatewaymgt.com",
    "rpm": "Jonathan Marrero",
    "rvp": "Toni Raymond",
    "owner": "Gateway",
    "legal_entity": "Azalea Mill Cottages, LP",
    "lat": 0.0,
    "lng": 0.0
  },
  {
    "name": "Union at Stonecrest",
    "type": "55",
    "units": 122.0,
    "manager": "Stephanie Davis",
    "assistant_mgr": "Terry Mayes",
    "compliance": "Amber",
    "address": "6565 Chupp Road",
    "city": "Stonecrest",
    "state": "GA",
    "zip": "30058",
    "office_phone": "470-610-6060",
    "fax": null,
    "manager_email": "unionatstonecrest.com",
    "rpm": "Brenda Jackson",
    "rvp": "Toni Raymond",
    "owner": "Timshel",
    "legal_entity": null,
    "lat": 33.7052641,
    "lng": -84.1237335
  },
  {
    "name": "Union Landing",
    "type": "F",
    "units": 240.0,
    "manager": "Sarena Harvey",
    "assistant_mgr": "Sheannette Hall",
    "compliance": "Britney",
    "address": "4712 Flat Shoals Road",
    "city": "Union City",
    "state": "GA",
    "zip": "30291",
    "office_phone": "770-644-0700",
    "fax": "770-644-0700",
    "manager_email": "unionlanding@gatewaymgt.com",
    "rpm": "Arglidian McElheney",
    "rvp": "Toni Raymond",
    "owner": "LDG",
    "legal_entity": "Union City Family Development, LP",
    "lat": 33.5843208,
    "lng": -84.5404491
  },
  {
    "name": "Valley Ridge Apts.",
    "type": "F",
    "units": 80.0,
    "manager": "TBD",
    "assistant_mgr": null,
    "compliance": "Amber",
    "address": "950 Mooty Bridge Rd",
    "city": "LaGrange",
    "state": "GA",
    "zip": "30240",
    "office_phone": "706-882-1815",
    "fax": "706-882-5795",
    "manager_email": "valleyridge@gatewaymgt.com",
    "rpm": "Jonathan Marrero",
    "rvp": "Toni Raymond",
    "owner": "Gateway",
    "legal_entity": "Valley Ridge Apartments, LP",
    "lat": 33.0571881,
    "lng": -85.0340718
  },
  {
    "name": "Valley Senior Village",
    "type": "55",
    "units": 56.0,
    "manager": "Jeanette Jones",
    "assistant_mgr": null,
    "compliance": "Paulette",
    "address": "2107 40th Street",
    "city": "Valley",
    "state": "AL",
    "zip": "36854",
    "office_phone": "334-219-4900",
    "fax": "334-219-4900",
    "manager_email": "valleysenior@gatewaymgt.com",
    "rpm": "Trisha Chauvin",
    "rvp": "Erin Loupe",
    "owner": "Gateway",
    "legal_entity": "Valley Senior Village LTD",
    "lat": 32.8326028,
    "lng": -85.1788317
  },
  {
    "name": "Verandah Apts., The",
    "type": "55",
    "units": 40.0,
    "manager": "TBD",
    "assistant_mgr": "TBD",
    "compliance": "Kimberly",
    "address": "821 N. Mayo St.",
    "city": "Americus",
    "state": "GA",
    "zip": "31709",
    "office_phone": "229-931-0016",
    "fax": "229-213-0508",
    "manager_email": "verandah@gatewaymgt.com",
    "rpm": "Chantelle Boone",
    "rvp": "Toni Raymond",
    "owner": "Gateway",
    "legal_entity": null,
    "lat": 0.0,
    "lng": 0.0
  },
  {
    "name": "Village at Blackshear ",
    "type": "F",
    "units": 64.0,
    "manager": "Jenny Starling",
    "assistant_mgr": "Nealie Corbett",
    "compliance": "Bendetta",
    "address": "940 Ware Street",
    "city": "Blackshear",
    "state": "GA",
    "zip": "31516",
    "office_phone": "912-449-5291",
    "fax": "912-208-3900",
    "manager_email": "blackshear@gatewaymgt.com",
    "rpm": "Tere Dykes",
    "rvp": "Paula Hall",
    "owner": "Macon Housing",
    "legal_entity": "Blackshear Village, L.P.",
    "lat": 31.3015084,
    "lng": -82.256715
  },
  {
    "name": "Village at Wedgewood",
    "type": "55",
    "units": 42.0,
    "manager": "Belinda Willis",
    "assistant_mgr": null,
    "compliance": "Kimberly",
    "address": "307 17th Ave. N.W. ",
    "city": "Cairo",
    "state": "GA",
    "zip": "39827",
    "office_phone": "229-307-0092",
    "fax": "229-471-1353",
    "manager_email": "villagewedge@gatewaymgt.com",
    "rpm": "Tere Dykes",
    "rvp": "Paula Hall",
    "owner": "Gateway",
    "legal_entity": null,
    "lat": 0.0,
    "lng": 0.0
  },
  {
    "name": "Village on Park",
    "type": "F",
    "units": 64.0,
    "manager": "Melissa Folsom",
    "assistant_mgr": null,
    "compliance": "Paulette",
    "address": "908 West Park Street",
    "city": "Hahira",
    "state": "GA",
    "zip": "31632",
    "office_phone": "229-299-4010",
    "fax": "229-299-4010",
    "manager_email": "villageonpark@gatewaymgt.com",
    "rpm": "Tere Dykes",
    "rvp": "Paula Hall",
    "owner": "Gateway",
    "legal_entity": null,
    "lat": 30.9884558,
    "lng": -83.3787939
  },
  {
    "name": "Villages at Congaree Pointe ",
    "type": "F",
    "units": 240.0,
    "manager": "Lakeisha Thompson",
    "assistant_mgr": "Catherine Wroten",
    "compliance": "Kimberly",
    "address": "2701 Atlas Road ",
    "city": "Columbia",
    "state": "SC",
    "zip": "29209",
    "office_phone": "803-881-3950",
    "fax": null,
    "manager_email": "congareepointe@gatewaymgt.com",
    "rpm": "Natashia Thompson",
    "rvp": "Melissa Valley",
    "owner": "Armanda/Exact",
    "legal_entity": "Congaree Pointe, LP",
    "lat": 33.9501768,
    "lng": -80.9623581
  },
  {
    "name": "Villages at Stone Mountain, The ",
    "type": "55",
    "units": 118.0,
    "manager": "TBD",
    "assistant_mgr": "TBD",
    "compliance": "Becky",
    "address": "5734 Rockbridge Road",
    "city": "Stone Mountain ",
    "state": "GA",
    "zip": "30087",
    "office_phone": "470-610-6150",
    "fax": "470-670-6151",
    "manager_email": "villageatstonemountain@gatewaymgt.com",
    "rpm": "Jonathan Marrero",
    "rvp": "Toni Raymond",
    "owner": "Gateway",
    "legal_entity": "Harmony at Stone Mountain LP",
    "lat": 33.7889835,
    "lng": -84.1688979
  },
  {
    "name": "Villas of Benedictine ",
    "type": "55",
    "units": 55.0,
    "manager": "TBD",
    "assistant_mgr": null,
    "compliance": "Gail",
    "address": "2000 W Warner",
    "city": "Guthrie",
    "state": "OK",
    "zip": "73044",
    "office_phone": "405-293-9046",
    "fax": null,
    "manager_email": "villasofbenedictine@gatewaymgt.com",
    "rpm": "Diana Stoflet",
    "rvp": "Erin Loupe",
    "owner": "Rob Coats Banyon Foundation",
    "legal_entity": "Benedictine Senior Housing LP",
    "lat": 35.88106,
    "lng": -97.449219
  },
  {
    "name": "Villas on Forsyth",
    "type": "55",
    "units": 42.0,
    "manager": "Kindell Nelson",
    "assistant_mgr": null,
    "compliance": "Gail",
    "address": "101 Virginia Ave",
    "city": "Barnesville",
    "state": "GA",
    "zip": "30204",
    "office_phone": "770-358-4880",
    "fax": "470-317-2815",
    "manager_email": "villasforsyth@gatewaymgt.com",
    "rpm": "Trisha Chauvin",
    "rvp": "Erin Loupe",
    "owner": "Gateway",
    "legal_entity": "Villas on Forsyth, LP",
    "lat": 0.0,
    "lng": 0.0
  },
  {
    "name": "Vinings of Augusta",
    "type": "5",
    "units": 122.0,
    "manager": "Kelly Bell",
    "assistant_mgr": "Gabriela Berry",
    "compliance": "Amber",
    "address": "3696 Peach Orchard Road",
    "city": "Augusta",
    "state": "GA",
    "zip": "30906",
    "office_phone": "762-253-2500",
    "fax": "470-253-2501",
    "manager_email": "viningsofaugusta@gatewaymgt.com",
    "rpm": "Sharon Waldo",
    "rvp": "Melissa Valley",
    "owner": "Gateway",
    "legal_entity": "Harmony at Augusta, LP",
    "lat": 33.3644752,
    "lng": -82.0386353
  },
  {
    "name": "Walden Crest ",
    "type": "F",
    "units": 56.0,
    "manager": "Marian Franco",
    "assistant_mgr": null,
    "compliance": "Gail",
    "address": "350 Mill Street",
    "city": "Hohenwald",
    "state": "TN",
    "zip": "38462",
    "office_phone": "931-329-3201",
    "fax": null,
    "manager_email": "waldencrest@gatewaymgt.com",
    "rpm": "Shirley Greer",
    "rvp": "Paula Hall",
    "owner": "Gateway",
    "legal_entity": "Hohenwald Estates, LP",
    "lat": 0.0,
    "lng": 0.0
  },
  {
    "name": "Waring I",
    "type": "F",
    "units": 40.0,
    "manager": "Jenny Starling",
    "assistant_mgr": "Nealie Corbett",
    "compliance": "Gail",
    "address": "812 E. Waring St.",
    "city": "Waycross",
    "state": "GA",
    "zip": "31501",
    "office_phone": "901-285-0373",
    "fax": null,
    "manager_email": "waring2@gatewaymgt.com",
    "rpm": "Tere Dykes",
    "rvp": "Paula Hall",
    "owner": "Gateway",
    "legal_entity": "DASH Warning Apartments LLC",
    "lat": 31.240964,
    "lng": -82.356566
  },
  {
    "name": "Waring II Apts.",
    "type": "55",
    "units": 36.0,
    "manager": "Jenny Starling",
    "assistant_mgr": "Nealie Corbett",
    "compliance": "Gail",
    "address": "806 E Waring Street",
    "city": "Waycross",
    "state": "GA",
    "zip": "31501",
    "office_phone": "912-283-1233",
    "fax": "912-209-0125",
    "manager_email": "waring2@gatewaymgt.com",
    "rpm": "Tere Dykes",
    "rvp": "Paula Hall",
    "owner": "Gateway",
    "legal_entity": null,
    "lat": 31.240963,
    "lng": -82.356936
  },
  {
    "name": "Waterford Farms",
    "type": "F",
    "units": 48.0,
    "manager": "Taylor Johns",
    "assistant_mgr": null,
    "compliance": "Amber",
    "address": "644 Cullman Road SW",
    "city": "Arab",
    "state": "AL",
    "zip": "35016",
    "office_phone": "256-586-5004",
    "fax": "256-203-5005",
    "manager_email": "waterford@gatewaymgt.com",
    "rpm": "Shirley Greer",
    "rvp": "Paula Hall",
    "owner": "Gateway",
    "legal_entity": "Waterford Farms Apartments, LTD",
    "lat": 34.3129898,
    "lng": -86.5123977
  },
  {
    "name": "Ways Station ",
    "type": "55",
    "units": 84.0,
    "manager": "Tanisha Cummings",
    "assistant_mgr": null,
    "compliance": "Kimberly",
    "address": "201 Kroger Drive",
    "city": "Richmond Hill",
    "state": "GA",
    "zip": "31324",
    "office_phone": "912-598-4100",
    "fax": "(725) 223-1033",
    "manager_email": "waysstation@gatewaymgt.com",
    "rpm": "Chantelle Boone",
    "rvp": "Toni Raymond",
    "owner": "Gateway",
    "legal_entity": null,
    "lat": 0.0,
    "lng": 0.0
  },
  {
    "name": "Windcliff Apts.",
    "type": "62",
    "units": 56.0,
    "manager": "Stacey Watson",
    "assistant_mgr": null,
    "compliance": "Gail",
    "address": "150 Gabriel Circle",
    "city": "Gainesville",
    "state": "GA",
    "zip": "30501",
    "office_phone": "770-503-0568",
    "fax": "770-450-6016",
    "manager_email": "windcliff@gatewaymgt.com",
    "rpm": "Brandi Harris",
    "rvp": "Toni Raymond",
    "owner": "Gateway",
    "legal_entity": "Windcliff  Apartments, LLC",
    "lat": 34.3318976,
    "lng": -83.8043436
  },
  {
    "name": "Wood Meadow ",
    "type": "F",
    "units": 80.0,
    "manager": "Seanta Cooper",
    "assistant_mgr": null,
    "compliance": "Gail",
    "address": "1133 Coldbrook Station Circle",
    "city": "Port Wentworth",
    "state": "GA",
    "zip": "31407",
    "office_phone": "912-387-0500",
    "fax": "912-387-0500",
    "manager_email": "woodmeadow@gatewaymgt.com",
    "rpm": "Chantelle Boone",
    "rvp": "Toni Raymond",
    "owner": "Gateway",
    "legal_entity": "Wood Meadow Apartments, LP",
    "lat": 0.0,
    "lng": 0.0
  },
  {
    "name": "Woodcrest Apts",
    "type": "F",
    "units": 48.0,
    "manager": "Brandon Douglas",
    "assistant_mgr": null,
    "compliance": null,
    "address": "1682 N. Lobdell Ave.",
    "city": "Baton Rouge",
    "state": "LA",
    "zip": "70806",
    "office_phone": "225-258-2690",
    "fax": null,
    "manager_email": "woodcrest@gatewaymgt.com",
    "rpm": "Tina Ard",
    "rvp": "Erin Loupe",
    "owner": "LDG",
    "legal_entity": "Woodcrest Apartments, LP",
    "lat": 0.0,
    "lng": 0.0
  },
  {
    "name": "Woodlawn Terrace",
    "type": "55",
    "units": 60.0,
    "manager": "Jana Fletcher",
    "assistant_mgr": null,
    "compliance": "Paulette",
    "address": "1211 Barack Obama Blvd.",
    "city": "Valdosta",
    "state": "GA",
    "zip": "31601",
    "office_phone": "229-245-9920",
    "fax": "229-255-3103",
    "manager_email": "woodlawn@gatewaymgt.com",
    "rpm": "Tere Dykes",
    "rvp": "Paula Hall",
    "owner": "Gateway",
    "legal_entity": null,
    "lat": 30.848758,
    "lng": -83.266142
  },
  {
    "name": "South Rossville Senior Village (acquisition eff. 10/14/25)",
    "type": "S",
    "units": 60.0,
    "manager": "TBD",
    "assistant_mgr": "TBD",
    "compliance": "TBD",
    "address": "1300 McFarland Avenue",
    "city": "Rossville",
    "state": "GA",
    "zip": "30741",
    "office_phone": "706-861-3934",
    "fax": null,
    "manager_email": "southrossville@gatewaymgt.com",
    "rpm": "Anna Walters",
    "rvp": "Erin Loupe",
    "owner": "Gateway ",
    "legal_entity": null,
    "lat": 34.971101,
    "lng": -85.294505
  }
]
